|title|district|latitude|longitude|area|number_of_rooms|year_of_creation|price_for_m2_in_PLN|type_of_building|garage|balcony|internet|parking|elevator|floor|terrace|basement|garden|type_of_market
0|3 pokoje   Nowoczesne   Winda   Balkon|Gdańsk Łostowice, Niepołomicka|54.31742615|18.593106398457195|50|3|2017|12600|Mieszkanie|0|1|1|1|1|1|0|0|0|secondary
1|4 pokoje / blisko centrum / blisko uczelni|Gdańsk Suchanino, Powstańców Warszawskich|50.702898|17.907467|64|4|1975|11640|Mieszkanie|0|1|0|0|0|4|0|1|0|secondary
2|Klimatyczne   dwupoziomowe   dobrze skomunikowane|Gdynia Wzgórze św. Maksymiliana, Gen. Jarosława Dąbrowskiego|54.50107075|18.53881452006297|53.44|3|1950|10984|Mieszkanie|0|0|0|0|0|1|0|0|0|secondary
3|Apartament Browar Gdański z 60 m2 tarasem|Gdańsk Wrzeszcz, Lelewela 6|52.236167|19.363019|60|3|2019|28250|Mieszkanie|1|0|1|0|1|1|0|0|1|secondary
4|Mieszkanie 4 pokojowe (100m2) - przy plaży. Gdańsk Letnica|Gdańsk Letnica, Starowiejska 81|54.3981198|18.6476667|100|4|2023|14500|Mieszkanie|0|1|1|1|1|5|0|0|0|secondary
5|Mieszkanie 2-pok. Gdańsk Wrzeszcz|Gdańsk Wrzeszcz, Konrada Leczkowa|54.377927650000004|18.620262870247064|40|2|1988|16000|Mieszkanie|0|0|1|1|1|2|0|0|0|secondary
6|Mieszkanie na sprzedaż, od właściciela, widok na morze!|Gdynia Śródmieście, Paderewskiego|51.951035|19.378243|30|2|1970|19567|Mieszkanie|0|0|0|0|0|7|0|0|0|secondary
7|Na sprzedaż mieszkanie 2-pokojowe z dużym balkonem w Gdańsku|Gdańsk, Kadmowa|54.327744949999996|18.617031712234997|34.4|2|2016|16570|Mieszkanie|0|1|0|1|1|2|0|0|0|secondary
8|Sprzedam mieszkanie 40m2 Gdańsk - Jasień|Gdańsk Jasień, Potęgowska|54.3314076|18.550409385581524|40|2|2013|12250|Mieszkanie|0|1|1|1|1|1|0|0|0|secondary
9|Sprzedam mieszkanie 3 pokoje 60,3m2|Gdynia Cisowa, Chylońska 255|54.5489989|18.4453877|60.3|3|1980|10995|Mieszkanie|0|0|0|0|0|2|0|0|0|secondary
10|Wyjątkowe mieszkanie z duszą czeka na nowych bohaterów!|Gdańsk Zakoniczyn, Porębskiego|54.3187243|18.5813595|70.8|3|2004|10975|Mieszkanie|0|1|1|0|0|1|0|0|0|secondary
11|2 pok. M o pow. 43m2 z dobrą komunikacją|Gdańsk Chełm, Prof. Stanisława Szpora|54.33485975|18.609189750897905|43.1|2|2008|13898|Mieszkanie|0|1|0|1|0|Parter|0|1|0|secondary
12|Gotowiec Inwestycyjny - Centrum Atrakcyjne 2 Pokoje !!|Gdynia Wzgórze św. Maksymiliana, Legionów 68|54.5033245|18.5421675|31.53|2|1970|13955|Mieszkanie|0|0|0|0|0|1|0|0|0|secondary
13|Wyjątkowe  4 pok. mieszkanie na Garnizonie|Gdańsk Wrzeszcz, Edwarda Stachury|54.3820338|18.5868309|9|4|2019|23370|Mieszkanie|1|1|0|1|1|2|0|1|0|secondary
14|Funkcjonalne   dobrze skomunikowane   balkon|Gdańsk Ujeścisko, Królowej Jadwigi|54.3274728|18.6072553|49.48|2|2008|13116|Mieszkanie|0|0|0|0|0|Parter|0|0|0|secondary
15|Dom w zabudowie szeregowej|Gdynia Wiczlino, Jachtowa|54.5018506|18.4213138|105|4|2018|12286|Dom szeregowy|0|0|1|1|0|nan|0|0|1|secondary
16|Umeblowane*Galeria*Siłownia*Balkon*Parking*Taras|Gdynia Wzgórze św. Maksymiliana, Górskiego|54.497285|18.5318575|48|2|2022|19167|Mieszkanie|0|0|0|0|0|8|0|0|0|secondary
17|Dzień otwarty! Rodzinny dom na dużej działce|Gdańsk Osowa, Jutrzenki|54.41792425|18.470762751262143|195.17|6|2005|9223|Dom wolnostojący|1|0|0|0|0|nan|0|0|0|secondary
18|Apartament   ogród   widok na ścianę lasu|Gdynia Mały Kack, Strzelców|54.4691693|18.5091229|92.84|3|2013|13895|Mieszkanie|1|0|0|0|1|Parter|0|0|0|secondary
19|Dom wolnostojący   dużo pokoi   las   fotowoltaika|Gdynia Chwarzno, Amona|54.5027534|18.4580211|31|6|1980|5256|Dom wolnostojący|1|0|0|0|0|nan|0|0|0|secondary
20|Gotowe do wprowadzenia trzypokojowe mieszkanie|Gdańsk Jasień, Potęgowska|54.3314076|18.550409385581524|49.6|3|2013|12077|Mieszkanie|1|1|0|0|1|3|0|0|0|secondary
21|2 pokoje   dobra lokalizacja   słoneczne   swpl|Gdańsk Orunia Górna, Gen. Leopolda Okulickiego|54.3243349|18.6080774|46.6|2|2006|11781|Mieszkanie|1|1|0|0|0|2|0|0|0|secondary
22|2 pokoje   kameralne osiedle   balkon   garaż|Gdynia Wiczlino, Leona Staniszewskiego|54.4953682|18.436502391721852|42.7|2|2007|11593|Mieszkanie|1|1|0|0|0|1|0|0|0|secondary
23|Przestronne. 2 pokojowe. Szybkie wydanie.|Gdańsk Nowy Port, Wyzwolenia|54.3980748|18.6657651|46.5|2|1978|9634|Mieszkanie|0|1|1|1|1|5|0|1|0|secondary
24|Gdynia widok na morze przy marinie, blisko plaża !|Gdynia Śródmieście, Św. Piotra|54.5255865|18.5444385|64.44|3|2023|1938|Mieszkanie|0|0|0|0|0|6|0|0|0|secondary
25|Dwa domy na samodzielne pokoje ze SPA|Gdynia Orłowo, Limbowa 5|51.780328|19.517508|500|28|1980|9200|Dom bliźniak|0|0|0|0|0|nan|0|0|0|secondary
26|4pok. w cenie 3pok. /balkon/siłownia/hala garażowa|Gdańsk Łostowice, Pastelowa|52.092517|20.635421|6|4|2022|10161|Mieszkanie|1|0|0|0|1|2|0|0|0|secondary
27|4pok. w cenie 3pok. /balkon/siłownia/hala garażowa|Gdańsk Łostowice, Pastelowa|52.092517|20.635421|6|3|2022|10161|Mieszkanie|1|0|0|0|1|2|0|0|0|secondary
28|Tylko u Nas -3 pok. z balkonem AMBRO - Murapol|Gdańsk Łostowice, Hilarego Koprowskiego|49.984886|21.277124|47.5|3|2023|11993|Mieszkanie|1|0|0|0|1|3|0|0|0|secondary
29|10 minut spacerem do plaży  2 pok w TOP lokalizacj|Gdańsk Przymorze, Piastowska|54.4158038|18.5869742|46|2|1966|14543|Mieszkanie|0|1|1|0|1|7|0|1|0|secondary
30|Tylko u nas- Mieszkanie 2 pokoje, Wrzeszcz !|Gdańsk Wrzeszcz, Reymonta|52.220502|19.343546|4|2|1980|1545|Mieszkanie|0|1|1|0|0|4|0|1|0|secondary
31|Jasne 4 pokoje dla rodziny kochającej naturę|Gdańsk Zakoniczyn, Konstantego Bergiela|54.318170300000006|18.58228688217523|71.89|4|2006|10711|Mieszkanie|1|1|0|1|0|Parter|0|0|0|secondary
32|Okazja   Słoneczne z widokiem   Możliwy kredyt|Gdańsk Zakoniczyn, Konstantego Bergiela|54.318170300000006|18.58228688217523|59.53|2|2006|9995|Mieszkanie|0|1|0|0|0|2|0|1|0|secondary
33|Słoneczne ️ 3 pokoje Osobna Kuchnia z AGD|Gdynia Witomino, PCK 7|51.65056|19.34435|46.9|3|1976|11706|Mieszkanie|0|1|0|0|1|7|0|1|0|secondary
34|Dom w Oliwie - Ostatnia Willa w sprzedaży|Gdańsk Oliwa, Morawska|52.191456|21.13736|177|5|2024|17458|Dom bliźniak|0|0|0|0|0|nan|0|0|0|secondary
35|4 pok + poddasze Super Lokalizacja|Gdańsk Ujeścisko, Kaliska|54.3249884|18.5952335|72.98|5|1992|10948|Mieszkanie|0|1|1|1|0|2|0|1|0|secondary
36|Wykończony dom wolnostojący, blisko Centrum|Gdańsk Jasień, Czereśniowa|51.875419|19.387311|118|4|2008|12711|Dom wolnostojący|0|0|0|0|0|nan|0|0|0|secondary
37|Komfortowe słoneczne 2-pokojowe mieszkanie z garderobą w Sopocie|Sopot Sopot Górny , 23 Marca|54.4457651|18.5575556|38|2|1976|17237|Mieszkanie|0|1|1|0|1|4|0|0|0|secondary
38|Mieszkanie 4 pokoje Gdańsk Lawendowe Wzgórza|Gdańsk Jasień , Lawendowe Wzgórze|52.201692|18.259949|67|4|2015|14910|Mieszkanie|1|0|1|1|1|5|1|1|0|secondary
39|Słoneczne 2 pokojowe mieszkanie Gdynia Karwiny|Gdynia Karwiny, Buraczana 45|54.4722354|18.5070441|36|2|1980|11528|Mieszkanie|0|0|0|0|0|4|0|0|0|secondary
40|Mieszkanie Wladyslawa IV. Po Remoncie|Gdynia Śródmieście, Wladyslawa IV|52.215343|21.15568|43.8|2|1931|1550|Mieszkanie|0|0|0|0|0|1|0|0|0|secondary
41|Sprzedam mieszkanie w Gdańsku, dzielnica Przymorze|Gdańsk Przymorze, Olsztyńska|54.4032338|18.6048565|38|2|1982|16579|Mieszkanie|0|1|1|0|0|2|0|1|0|secondary
42|Idealny dom, w centrum miasta !!!!|Gdynia Mały Kack, Św. Kazimierza Królewicza|52.170997|21.077484|176|7|2000|9034|Dom szeregowy|0|0|0|0|0|nan|0|0|0|secondary
43|Sprzedam mieszkanie w Gdyni|Gdynia Chylonia, Zamenhofa 11|52.231674|19.358403|27|2|1980|11074|Mieszkanie|0|0|0|0|0|4|0|0|0|secondary
44|2 pok. mieszkanie. Blisko SKM. Po remoncie. Bezpośrednio|Gdynia Chylonia, Gniewska 21|54.5422938|18.4620586|45|2|1985|11089|Mieszkanie|0|0|1|0|1|3|0|0|0|secondary
45|4 pok + poddasze Super Lokalizacja|Gdańsk Ujeścisko, Kaliska|54.3249884|18.5952335|72.98|5|1992|10948|Mieszkanie|0|1|1|1|0|2|0|1|0|secondary
46|Przymorze. Idealna lokalizacja. Blisko plaży.|Gdańsk Przymorze, Chłopska|54.4070557|18.59242040007326|45|2|1971|13889|Mieszkanie|0|0|1|1|0|4|0|1|0|secondary
47|Przy plaży, z ogródkiem i miejscami parkingowymi|Sopot Dolny Sopot, Grunwaldzka|54.4439776|18.5698066|49.33|2|1901|32414|Mieszkanie|0|0|0|1|0|Parter|0|1|1|secondary
48|Pięknie położone mieszkanie na sprzedaż|Gdynia Śródmieście, Krasickiego|51.407939|19.709001|38|2|1970|13158|Mieszkanie|0|0|0|0|0|4|0|0|0|secondary
49|Dwustronne   przestronne   dobrze skomunikowane|Gdańsk Przeróbka, Teofila Lenartowicza|54.35735335|18.6871497|43.5|2|1976|10690|Mieszkanie|0|0|0|0|0|4|0|0|0|secondary
50|Pięknie zaprojektowane 2-pokoje na Pogodnej|Gdynia Witomino, Pogodna 2|51.937566|19.354944|42.54|2|1970|13376|Mieszkanie|0|0|0|0|0|3|0|1|0|secondary
51|Art Deco - Taraz na dachu / Jacuzzi|Gdynia Kamienna Góra, Żołnierzy I Armii Wojska Polskiego|54.5111652|18.5409205|98|3|2015|25510|Mieszkanie|1|0|0|0|1|5|0|0|0|secondary
52|Sprzedam bezpośrednio. 3 pok. Generalny remont.|Gdynia Obłuże, Podgórska|54.554114150000004|18.50682402428704|47|3|1980|11681|Mieszkanie|0|0|1|0|0|Parter|0|1|0|secondary
53|Sprzedam bezpośrednio. 3 pok. Generalny remont. Piękny widok. Las.|Gdynia Obłuże, Podgórska 7|54.5540572|18.5035998|47|3|1975|11681|Mieszkanie|0|1|1|0|1|10|0|1|0|secondary
54|Sprzedam bezpośrednio. 3 pok. Generalny remont. Piękny widok na port.|Gdynia Obłuże, Benisławskiego 24|54.55058|18.5233576|60|3|1980|10817|Mieszkanie|0|1|1|0|1|10|0|1|0|secondary
55|Przestronne 3 pok. mieszkanie. Blisko do morza. Bezpośrednio|Gdynia Pogórze, Staniewicza|54.56127515|18.498233329279017|63|3|1985|1030|Mieszkanie|0|1|1|0|0|Parter|0|1|0|secondary
56|Przestronne 3 pok. mieszkanie. Blisko PKM. Bezpośrednio.|Gdynia Karwiny, Buraczana|54.47371105|18.504214729434647|60.01|3|1985|11648|Mieszkanie|0|1|1|0|0|4|0|1|0|secondary
57|Namiastka domu, dwupoziomowe 5 pokoi osobne wejście/ garaż|Gdańsk Łostowice, Niepołomicka|54.31742615|18.593106398457195|108|5|2021|11944|Mieszkanie|0|0|0|0|0|1|0|0|0|secondary
58|Unikalny apartament blisko morza w Sopocie|Sopot Dolny Sopot, Łokietka 19|54.4338529|18.5713418|14|6|2015|22887|Mieszkanie|1|1|1|1|1|2|1|1|0|secondary
59|2 p o z i o m o w e + D U Ż E Klimatyzowe M!|Gdańsk Morena, Myśliwska|54.3457315|18.583013955487807|131|5|2008|8015|Mieszkanie|1|1|0|1|0|5|0|1|0|secondary
60|Apartament inwestycyjny nad morzem 2-pok Awiator|Gdańsk Zaspa|54.3564345|18.6441946|48|2|2015|19271|Mieszkanie|0|0|0|0|0|5|0|0|0|secondary
61|Gdańsk ul. Storczykowa - garaż w cenie!|Gdańsk Karczemki, Storczykowa 18|54.3551274|18.5082103|50|3|2004|9980|Mieszkanie|0|0|0|0|0|3|0|0|0|secondary
62|Jedyne takie mieszkanie w Gdyni|Gdynia Śródmieście, Żwirki i Wigury 2a|54.515067|18.5379655|48.28|2|1967|16000|Mieszkanie|0|0|0|0|0|3|0|0|0|secondary
63|Wykończony, po generalnym remoncie, obok lasu|Gdynia Dąbrowa, Koperkowa|54.47561965|18.463780058801177|357.7|5|1990|5563|Dom wolnostojący|0|0|0|0|0|nan|0|0|0|secondary
64|Słoneczna kawalerka na Przymorzu|Gdańsk Przymorze, Chłopska|54.4070557|18.59242040007326|30|1|1978|14333|Mieszkanie|0|0|0|0|0|2|0|0|0|secondary
65|Okazja! Piękne, wyremontowane mieszkanie blisko plaży|Gdańsk Żabianka, Wejhera 7|54.4215172|18.5832452|44|2|1966|16364|Mieszkanie|0|0|1|0|0|Parter|0|1|0|secondary
66|4-pokojowy apartament w pięknej kamienicy|Gdańsk Wrzeszcz, Kochanowskiego 75|54.3841033|18.6277728|75.16|4|1920|14090|Mieszkanie|0|0|0|0|0|Parter|0|1|0|secondary
67|Kominek   wys. 4,25 m   3 tarasy - unikat..|Gdańsk Kiełpinek, Taneczna|54.353581|18.658209|103|4|2007|15437|Mieszkanie|0|0|1|1|1|3|0|0|0|secondary
68|Energooszczędne Mieszkanie 75m2 - 4 pokoje|Gdańsk|54.372781|18.628385|75|4|2024|5320|Mieszkanie|0|0|0|0|0|Parter|0|0|0|secondary
69|Morena 30 m sprzedam|Gdańsk Morena, Hausbrandta|54.34773575|18.584768542581777|30|1|2018|18500|Mieszkanie|1|0|0|0|0|Parter|0|0|0|secondary
70|Piękne mieszkanie na zamkniętym osiedlu z patio!|Gdańsk pogórze, Stefana Czarnieckiego 16|51.8488642|19.4289196|66.6|3|2016|11997|Mieszkanie|0|0|0|0|0|2|0|0|0|secondary
71|Mieszkanie - Gdańsk Wrzeszcz|Gdańsk Wrzeszcz, Saperów|54.3820132|18.617361312590006|85.6|3|1920|18680|Mieszkanie|0|0|0|1|0|1|0|1|1|secondary
72|Mieszkanie - Gdańsk Zaspa|Gdańsk Zaspa, Pilotów|54.3913564|18.5923145|56.3|3|1980|13304|Mieszkanie|0|0|0|0|0|8|0|0|0|secondary
73|Mieszkanie - Gdańsk Morena|Gdańsk Morena, Stanisława Lema|54.349464499999996|18.588641739056754|39.01|2|2018|16637|Mieszkanie|0|1|0|1|1|2|0|0|0|secondary
74|Mieszkanie 2-pok. Gdańsk Chełm. Piękne, zadbane. Wyśmienita lokalizacja|Gdańsk Ujeścisko, Rogalińska|54.378291|18.487005|55.3|2|2005|12116|Mieszkanie|0|1|0|1|0|3|0|1|0|secondary
75|Łostowice, kawalerka w wysokim standardzie|Gdańsk Łostowice, Niepołomicka|54.31742615|18.593106398457195|33.69|1|2020|12615|Mieszkanie|0|0|0|1|1|Parter|0|0|1|secondary
76|Nowy apartament w świetnej lokalizacji, 600m do morza, wysoki standard|Gdańsk Brzeźno|54.40475435|18.64439597343098|38.63|2|2023|27958|Mieszkanie|0|0|0|1|1|1|1|0|0|secondary
77|Mieszkanie 3-pokojowe z widokiem na morze|Gdańsk Żabianka, Chłopska 65|54.4197921|18.5835104|61.7|3|2010|186|Mieszkanie|0|0|0|0|0|7|0|0|0|secondary
78|Mieszkanie w centrum Gdańska na Starym Mieście ul.Rajska|Gdańsk Śródmieście, Rajska|54.3562719|18.6486725|20|1|1960|27000|Mieszkanie|0|0|1|0|0|1|0|0|0|secondary
79|Słoneczne, 2 pokojowe mieszkanie z balkonem|Gdynia Chylonia, Młyńska|51.663037|19.451419|44.29|2|1972|991|Mieszkanie|0|1|0|1|0|2|0|1|0|secondary
80|Nietuzinkowy apartament z widokiem na las i zatokę|Gdynia Witomino, Chwarznieńska|54.4989129|18.5052618|104.23|3|2012|14967|Mieszkanie|1|1|0|0|1|6|0|0|0|secondary
81|Baltica Towers, idealny stan, kort tenisowy, taras|Gdańsk Brzeźno, Gen. Józefa Hallera|51.745911|19.810155|70.5|3|2019|24809|Mieszkanie|1|1|0|0|1|2|0|0|0|secondary
82|Duży balkon. superlokalizacja - 400m od Długiej.|Gdańsk Długie Ogrody, Świętej Barbary|54.3494938|18.6631722|6|3|1965|1395|Mieszkanie|0|1|1|1|0|3|0|1|0|secondary
83|Idealna inwestycja w samym sercu Gdańska|Gdańsk Śródmieście, Siennicka 47|54.3483443|18.6698787|49|3|1920|14245|Mieszkanie|0|0|0|0|0|1|0|0|0|secondary
84|Piękne 3 pokoje Młyny Gdańskie Ogród 223 metry|Gdańsk Siedlce, Malczewskiego 88|54.3493127|18.6344426|65.31|3|2023|19905|Mieszkanie|1|0|1|1|1|Parter|1|1|1|secondary
85|Gdańsk, ergonomiczny dom ze strefą relaksu|Gdańsk Kiełpino Górne, Lipuska|54.3370737|18.508306101585212|555.15|13|2013|7025|Dom wolnostojący|0|1|0|1|0|nan|0|1|1|secondary
86|Kawalerka - ul. Raduńska 19|Gdańsk Orunia, Raduńska|54.32788475|18.631722493704046|26|1|1970|1269|Mieszkanie|0|0|0|0|0|1|0|0|0|secondary
87|Pas nadmorski - park reagana - oliwa park|Gdańsk Przymorze, Bolesława Krzywoustego|54.41214635|18.57603169704355|48.5|2|2012|18536|Mieszkanie|1|0|0|0|1|Parter|0|0|0|secondary
88|Widok na motławę   AURA   wysoki standard|Gdańsk Stare Przedmieście, Toruńska|51.950691|19.352939|85.|3|2014|18181|Mieszkanie|1|0|0|0|1|4|0|0|0|secondary
89|20min pieszo od morza   Wysoki standard   Las|Gdynia Działki Leśne, Pomorska|54.5170178|18.5285109|76|3|2010|16829|Mieszkanie|1|0|0|0|1|2|0|0|0|secondary
90|Kawalerka   przestronna   dobrze skomunikowana|Gdańsk Chełm, Wincentego Witosa|54.3381301|18.616724|34.6|1|1985|12977|Mieszkanie|0|0|0|0|1|2|0|0|0|secondary
91|Przytulne mieszkanie z ogrodem|Gdańsk Jasień, Przytulna|54.352915100000004|18.529278327168402|45|2|2004|13776|Mieszkanie|0|0|1|0|0|Parter|1|1|1|secondary
92|Mieszkanie 2 pokojowe, dostępne od zaraz, Gdańsk Łostowice|Gdańsk Łostowice, Kampinoska|54.31771725|18.598374406344256|35.11|2|2024|12504|Mieszkanie|0|1|1|1|1|Parter|0|0|0|secondary
93|Central Park Morena 3 pokoje z świetną lokalizacją  klimatyzacja  hala|Gdańsk Morena, Rakoczego|54.3581005|18.5785837|51.5|3|2017|17087|Mieszkanie|1|1|1|1|1|11|0|0|0|secondary
94|Apartament z pięknym widokiem na 17 piętrze, z sauną|Gdańsk Wałowa, 25c|54.3584458|18.6514304|7|3|2018|19167|Mieszkanie|0|0|1|1|1|17|0|0|0|secondary
95|Od właściciela mieszkanie (52m2) +garaż (16m2) Wielki kack|Gdynia Wielki Kack, Górnicza 41|54.4676217|18.48157|5|2|1998|12885|Mieszkanie|0|0|0|0|0|3|0|0|0|secondary
96|Unikatowy apartament   widok na Motławę i Starówkę|Gdańsk Długie Ogrody, Sienna Grobla|54.324252|18.6344756|65.04|3|2023|1997|Mieszkanie|1|1|1|1|1|5|0|0|0|secondary
97|Apartament Premium   2 Ogródki   Hala   Wykończony|Gdańsk Letnica, Starowiejska|52.487088|19.937637|111.51|5|2024|14483|Mieszkanie|1|0|1|1|1|Parter|1|0|0|secondary
98|Luksusowy apartament z widokiem na Starówkę|Gdańsk Śródmieście, Stara Stocznia|54.3553102|18.6622584|84|3|2023|34155|Mieszkanie|1|1|1|1|1|6|0|0|0|secondary
99|Sol Marina   Ostatnie Piętro   Prywatna przystań|Gdańsk Sobieszewo, Łąkowa|51.967886|19.275366|24.64|1|2024|52719|Mieszkanie|0|0|1|1|1|2|0|0|0|secondary
100|Chełm   pierwsze piętro   3 pokoje + balkon|Gdańsk Chełm, Prof. Józefa Więckowskiego|54.333963100000005|18.613527805103786|63.4|3|1991|11498|Mieszkanie|0|1|1|1|0|1|0|1|0|secondary
101|3 pokoje na Żabiance / Morze / Ergo Arena|Gdańsk Żabianka, Gospody|54.4211917|18.5793031|44.3|3|1970|15914|Mieszkanie|0|1|1|0|0|1|0|1|0|secondary
102|Rozkładowe / ogródek / cisza i spokój|Gdynia Wiczlino, Danusi|54.488077|18.4214997|69.4|4|2017|13689|Mieszkanie|1|0|1|0|0|Parter|0|0|0|secondary
103|Mieszkanie w nadmorskiej dzielnicy|Gdańsk Stogi, Wilhelma Stryjewskiego|54.3611711|18.7119017|50.1|3|1969|10359|Mieszkanie|0|0|1|0|0|1|0|1|0|secondary
104|Mieszkanie blisko Parku Oruńskiego|Gdańsk Orunia, Raduńska|54.32788475|18.631722493704046|36|2|1970|11944|Mieszkanie|0|0|1|0|0|Parter|0|1|0|secondary
105|Centrum   Do remontu   Z potencjałem|Gdańsk Dolne Miasto, Polna|54.339881|18.6559494|38|2|1920|14211|Mieszkanie|0|0|0|0|0|2|0|1|0|secondary
106|Klimatyczne mieszkanie w sercu Oliwy|Gdańsk Oliwa, Jana Husa|54.40665505|18.56857278113887|71|3|1926|15915|Mieszkanie|0|0|1|0|0|1|1|1|0|secondary
107|Wysoki standard  Gdańsk 15 min   Dom z charakterem|Gdańsk Łostowice|54.31911|18.5918006|380|6|2021|789|Dom wolnostojący|1|1|1|1|0|nan|0|0|1|secondary
108|Wysoki standard. 3 pok - Osiedle Pastelowe|Gdańsk Łostowice, Pastelowa|52.092517|20.635421|55.1|3|2021|1179|Mieszkanie|1|1|1|1|1|2|0|1|0|secondary
109|Apartament 82m2 z wiodkiem na dziedziniec|Sopot Dolny Sopot, Książąt Pomorskich|54.4391221|18.5709036|8|3|1900|201|Mieszkanie|0|0|0|0|0|2|0|0|0|secondary
110|Mieszkanie na sprzedaż|Gdańsk Jasień, Flisykowskiego|54.353652|18.550084|66|3|2021|12500|Mieszkanie|0|0|0|0|0|3|0|0|0|secondary
111|Projekt architekta* Umeblowane *Balkon*Parking|Sopot Górny Sopot|54.42847735|18.565375631256135|87|4|1910|18276|Mieszkanie|0|0|0|0|0|1|0|0|0|secondary
112|Słoneczne*Od ręki* Niskie oplaty*Centrum*Gotowe|Sopot Górny Sopot, Sikorskiego|54.4415586|18.5585855|79|3|1910|1639|Mieszkanie|0|0|0|0|0|2|0|0|0|secondary
113|3 mieszkania-DOM*Taras*1km SKM*7min Centrum|Gdynia Mały Kack, Sandomierska|54.4868285|18.5275494|170|6|1980|7353|Mieszkanie|0|0|0|0|0|1|0|0|0|secondary
114|3 mieszkania-DOM*Taras*1km SKM*7min Centrum|Gdynia Mały Kack, Sandomierska|54.4868285|18.5275494|171|6|1980|7310|Dom wolnostojący|0|0|0|0|0|nan|0|0|0|secondary
115|3 pokoje   Wrzeszcz   Dwustronne   Garaż|Gdańsk Młyniska, Mikołaja Reja|51.951573|19.295161|58.|3|1975|14588|Mieszkanie|1|1|1|1|1|6|0|0|0|secondary
116|Piękny apartament w RiverView|Gdańsk Długie Ogrody, Angielska Grobla|54.3505277|18.666469174154322|38.5|1|2021|25506|Mieszkanie|0|0|1|1|1|1|0|0|0|secondary
117|Wyjątkowy Penthouse w Gdyni, w Sea Towers|Gdynia Śródmieście, A. Hryniewickiego|54.5190222|18.5569585|119.4|4|2009|36851|Mieszkanie|1|0|0|1|0|27|0|0|0|secondary
118|Mieszkanie 2-pokojowe Przymorze|Gdańsk Przymorze, Krzywoustego 17|54.4120745|18.5765809|31.74|2|1958|1950|Mieszkanie|0|0|1|1|0|3|0|1|0|secondary
119|Apartament w Sopocie - 120m od plaży|Sopot Dolny Sopot, Poniatowskiego 2|54.4398074|18.574711|87|4|1906|37931|Mieszkanie|0|0|0|0|0|1|0|0|0|secondary
120|3 pokojowe z ogródkiem. Taras. Blisko las.|Gdańsk Matarnia - Rębiechowo, Elewów|54.379458|18.50384|56|3|1994|12750|Mieszkanie|0|0|1|1|0|Parter|0|0|0|secondary
121|Słoneczne   5 pokoi   wysoki standard|Gdańsk Łostowice, Niepołomicka|54.31742615|18.593106398457195|85.09|5|2020|10565|Mieszkanie|0|1|0|1|1|4|0|0|0|secondary
122|Hit lata-apartament  nad morzem 48m2 GdańskBrzeźno|Gdańsk Brzeźno, Karola Chodkiewicza|54.4070137|18.628292350000002|48.35|2|2019|20476|Mieszkanie|0|1|1|0|1|2|0|0|0|secondary
123|Mieszkanie 2 pokojowe 60,53m2 z 2 miejscami parkingowymi-Gdańsk Jasień|Gdańsk Jasień, Lawendowe Wzgórze|52.201692|18.259949|60.53|2|2016|14043|Mieszkanie|0|1|1|1|1|4|0|1|0|secondary
124|Obłuże 3 pok   Niskie opłaty   Balkon   winda|Gdynia Obłuże, Adm. J. Unruga|54.54796|18.51856|47|3|1975|9957|Mieszkanie|0|1|0|1|0|7|0|1|0|secondary
125|Mieszkanie Sopot 200m od Monciaka inwestycja najem|Sopot Górny Sopot, 1 Maja|54.443566849999996|18.557375881581464|63.48|2|1960|15753|Mieszkanie|0|0|1|1|0|Parter|0|0|0|secondary
126|Dom szeregowy, skrajny  Gdynia Dąbrowa ul. Ziołowa|Gdynia Dąbrowa, Ziołowa|54.471543999999994|18.455362071381487|240|6|1988|4375|Dom szeregowy|1|1|1|1|0|nan|1|1|1|secondary
127|Mieszkanie dwupokojowe Gdynia Cisowa|Gdynia  Cisowa , 50|51.6033199|19.4599547|54.29|2|2018|12341|Mieszkanie|0|0|0|0|0|3|0|0|0|secondary
128|Mieszkanie (2015r.) / Miejsce parkingowe + Komórka|Gdańsk Ujeścisko, Cedrowa|54.378291|18.487005|48.6|3|2015|12860|Mieszkanie|0|1|0|1|1|1|0|0|0|secondary
129|Os. srebrniki   gotowy projekt   odbiór 06.2024|Gdańsk Morena, Magellana|54.3653233|18.5827173|83.74|4|2024|1194|Mieszkanie|0|1|1|1|1|2|0|0|0|secondary
130|2 pokojowy apartament z widokiem na morze|Gdańsk Morena, Piecewska|54.357597850000005|18.591512458150067|39.85|2|2019|16738|Mieszkanie|0|1|0|0|1|5|0|0|0|secondary
131|Dom Gdynia Redłowo|Gdynia Redłowo|54.491524|18.538366|33|6|2016|11596|Dom bliźniak|1|1|0|1|0|nan|0|1|1|secondary
132|Dom w Orłowie z widokiem na morze|Gdynia Orłowo|54.476646|18.54863|230|10|1982|13891|Dom wolnostojący|1|1|0|1|0|nan|0|1|1|secondary
133|Apartament w środku parku! Ogród, fitness, plaża|Gdańsk Brzeźno, Nadmorski Dwór|54.40699035|18.62224873521392|44.77|2|2023|25240|Mieszkanie|1|1|0|0|1|3|0|0|0|secondary
134|Nowa cena !! 2 pok. deweloperskie|Gdańsk Św. Wojciech, Władysława Jagiełły|51.710412|19.447731|41.93|2|2023|1073|Mieszkanie|1|1|0|0|1|3|0|0|0|secondary
135|3 pokojowe mieszkanie na Jasieniu !|Gdańsk Jasień, Alfonsa Flisykowskiego|54.3217154|18.5602869|57.1|3|2020|10854|Mieszkanie|1|1|0|0|1|1|0|0|0|secondary
136|Mieszkanie 3 pokoje ! Morena!  62,7m2 SWP|Gdańsk Morena, Janusza Kusocińskiego|51.752113|19.41181|62.7|3|1983|11946|Mieszkanie|1|1|0|0|1|Parter|0|0|0|secondary
137|Słoneczna Morena ! 17 piętro! Mieszkanie 3 pokoje!|Gdańsk Morena, Stanisława Lema|54.349464499999996|18.588641739056754|63.37|3|2019|16490|Mieszkanie|1|1|0|0|1|17|0|0|0|secondary
138|Kawalerka 34 m2 po generalnym remoncie z balkonem|Gdańsk VII Dwór, Gryglewskiego 13|54.3892912|18.5703215|34.4|1|1980|15959|Mieszkanie|0|1|0|0|0|4|0|1|0|secondary
139|Mieszkanie dwupokojowe Gdańsk Osowa|Gdańsk Osowa, Jednorożca|54.42419495|18.48480567276149|51|2|2008|11667|Mieszkanie|0|1|1|0|0|1|0|1|0|secondary
140|DNI Otwarte! 30.06 Okazja - Wyjątkowe mieszkanie, bez pośrednika|Gdańsk Orunia Górna, Dywizji Wołyńskiej 24|54.3225865|18.6152653|47.5|2|1999|12947|Mieszkanie|0|0|0|1|0|1|0|1|0|secondary
141|⭐3pokojowe na Zaspie z ogródkiem Po remoncie⭐|Gdańsk Zaspa, Pilotów 16|54.3922351|18.5905092|56.3|3|1975|15435|Mieszkanie|0|1|1|1|1|Parter|1|1|1|secondary
142|3 pokoje w Oliwie, CO miejskie, blisko tramwaju!|Gdańsk Oliwa, Jana Husa|54.40665505|18.56857278113887|70.|3|1920|12674|Mieszkanie|0|0|0|1|0|Parter|0|1|0|secondary
143|Mieszkanie w spokojnej okolicy idealne dla rodziny|Gdańsk Osowa, Zeusa|54.4225751|18.4624942|57|3|2011|11737|Mieszkanie|0|1|0|1|0|3|0|0|0|secondary
144|Centrum wrzeszcza   blisko komunikacji   5 POKOI|Gdańsk Wrzeszcz, Stanisława Staszica|51.825126|19.301891|64.6|5|1950|13916|Mieszkanie|0|0|0|1|0|Parter|0|1|0|secondary
145|Dwa pokoje po odświeżeniu! 15 minut do Dworca Głównego|Gdańsk Nowy Port, Wyzwolenia|54.3980748|18.6657651|46.|2|1980|10368|Mieszkanie|0|1|1|0|1|8|0|1|0|secondary
146|Mieszkanie trzypokojowe po generalnym remoncie na Przymorzu.|Gdańsk Przymorze|54.39627835|18.583297933930446|38|3|1973|15395|Mieszkanie|0|0|0|0|0|3|0|0|0|secondary
147|Unikatowe, mieszkanie dwupoziomowe blisko centrum|Gdańsk Siedlce|54.378291|18.487005|124|4|1999|9831|Mieszkanie|0|0|0|1|1|4|0|1|0|secondary
148|Nietuzinkowe- klimat, wnętrza, styl! Bardzo dobra lokalizacja|Gdańsk Siedlce|54.378291|18.487005|95.16|4|1990|13651|Mieszkanie|0|0|0|0|0|4|0|0|0|secondary
149|3 pokoje, niezależny układ. Oliwa, niedaleko parku!|Gdańsk Oliwa, Dickmanna|52.280641|19.329338|69.04|3|1920|14180|Mieszkanie|0|0|0|0|0|1|0|1|1|secondary
150|2 pokoje, balkon! Lokalizacja top! Dobra inwestycja!|Gdańsk Morena|54.378291|18.487005|38|2|2019|16289|Mieszkanie|1|1|1|1|1|1|1|0|0|secondary
151|Lokalizacja! Centrum Wrzeszcza! Bliskość i wygoda!|Gdańsk Wrzeszcz, Brzozowa|51.955508|19.314324|34.6|2|1910|20809|Mieszkanie|0|0|0|0|0|Parter|0|1|0|secondary
152|TOP Lokalizacja! Centrum Wrzeszcza!|Gdańsk Wrzeszcz, Jana Kilińskiego|54.38435265|18.605881242819947|30.1|2|1910|24884|Mieszkanie|0|0|0|1|0|Parter|0|1|0|secondary
153|Funkcjonalne mieszkanie z ogródkiem w Gdańsku|Gdańsk Jasień|51.839523|19.834207|40.78|2|2011|12236|Mieszkanie|0|0|0|0|0|Parter|0|0|0|secondary
154|Nowoczesny dom   6 pok.   Kiełpino Górne|Gdańsk Kiełpino Górne|54.3407251|18.5079237|240|6|2017|9958|Dom wolnostojący|1|0|0|0|0|nan|0|0|0|secondary
155|Sopot 2 Pokoje Oddzielna Jasna Kuchnia Balkon|Sopot Brodwino, Kolberga 19|50.805594|15.622697|41|2|1975|13146|Mieszkanie|0|1|0|0|0|10|0|0|0|secondary
156|Mieszkanie - Sopot Dolny|Sopot Dolny Sopot, Morska|54.4455618|18.567114051807554|50.77|2|2008|49000|Mieszkanie|1|1|1|1|1|3|0|0|0|secondary
157|2 pokoje na Jasieniu,|Gdańsk Jasień, Kazimierza Leskiego|54.3238638|18.5586781|31|2|2013|1403|Mieszkanie|0|1|0|1|0|3|0|0|0|secondary
158|Kawalerka, niedaleko pętli tramwajowej|Gdańsk Ujeścisko, Aleja Vaclava Havla|54.3361134|18.5977886|30|1|2019|15300|Mieszkanie|0|0|1|1|0|Parter|0|0|1|secondary
159|Apartament nad Motławą|Gdańsk Stare Przedmieście, Jaglana|51.811174|19.349004|47|2|2017|23085|Mieszkanie|0|1|0|1|1|4|0|0|0|secondary
160|** 3 Pokoje   Po Remoncie   SKM 5 min   Zobacz!**|Gdynia Redłowo, Kaczewska|54.49409525|18.540174499999996|77.64|3|1950|12223|Mieszkanie|0|0|0|0|0|Parter|0|1|0|secondary
161|Komfortowe 2 pokoje blisko morza|Sopot Wyścigi / Karlikowo, Władysława Łokietka|54.4338494|18.570333309046745|72.5|2|2007|25379|Mieszkanie|0|1|0|1|1|1|0|1|0|secondary
162|Mieszkanie funkcjonalne jak dom|Gdańsk Wrzeszcz, Tadeusza Kościuszki|54.38609535|18.604649962371575|120.5|5|1930|9957|Mieszkanie|0|1|0|1|0|3|0|1|0|secondary
163|Piękne mieszkanie, Lawendowe Wzg, 2 miejsca post.|Gdańsk Jasień, Jabłoniowa|54.3249641|18.5488228|59.96|3|2014|12324|Mieszkanie|0|0|0|0|1|3|0|0|0|secondary
164|Połowa bliźniaka,z ogrodem   Gdynia Dąbrowa|Gdynia Dąbrowa, Rumiankowa|54.473976050000005|18.45298883065003|393.4|8|2003|5567|Dom wolnostojący|1|1|0|1|0|nan|0|1|1|secondary
165|Centrum Wrzeszcza - kawalerka|Gdańsk Wrzeszcz, Grunwaldzka|50.016896349999996|22.680195777355458|35|1|1960|16714|Mieszkanie|0|1|0|0|0|2|0|0|0|secondary
166|Duże 3 pokojowe słoneczne mieszknie Chełmn|Gdańsk Ujeścisko, Anny Jagiellonki|54.32844785|18.60177705|70|3|2006|11000|Mieszkanie|0|1|1|1|0|Parter|0|0|1|secondary
167|3 pokoje z widokiem na las|Gdańsk Łostowice, Jana Kielasa|54.304636|18.584798|69.7|3|2008|10029|Mieszkanie|0|0|0|0|0|1|0|0|0|secondary
168|2 pokoje we Wrzeszczu w super lokalizacji!|Gdańsk Wrzeszcz, Aleja Grunwaldzka|54.37480295|18.618860278592766|44.54|2|1960|13920|Mieszkanie|0|1|0|0|0|1|0|1|0|secondary
169|Osiedle Pastelowe I 2 pokoje z ogródkiem|Gdańsk Orunia Górna, Pastelowa|54.30950035|18.60996235|37|2|2022|14297|Mieszkanie|0|0|0|1|1|Parter|0|0|1|secondary
170|Widok na morze   Pas nadmorski   Balkon|Gdynia Wzgórze św. Maksymiliana, Legionów|51.954582|19.356372|52.63|3|1970|13281|Mieszkanie|0|1|0|1|1|4|0|1|0|secondary
171|Nowa cena! 3-pokojowe mieszkanie dla rodziny|Gdańsk Jasień|51.839523|19.834207|71.1|3|2012|1049|Mieszkanie|0|1|1|1|1|1|0|0|0|secondary
172|4 pokoje po remoncie w Otulinie Lasu Blisko centrum|Gdynia Witomino, Chwarznieńska|54.4989129|18.5052618|52.4|4|1974|14294|Mieszkanie|0|0|0|0|0|2|0|0|0|secondary
173|Mieszkanie 3 pokojowe z dużym balkonem|Gdańsk Suchanino, Czajkowskiego|49.973791|18.967563|70|3|2012|11414|Mieszkanie|0|0|0|0|0|2|0|0|0|secondary
174|Mieszkanie 3 pokojowe /słoneczne / Kowale|Gdańsk Kowale , Zeusa 80|54.3043859|18.5685833|52.19|3|2016|12071|Mieszkanie|0|0|0|0|0|3|0|0|0|secondary
175|** 3 pokoje   Centrum   Po Remoncie   Aktualne**|Gdynia Wzgórze św. Maksymiliana, Bp. Dominika|54.50485075|18.53695049875102|5|3|1960|11519|Mieszkanie|0|0|1|0|0|5|0|1|0|secondary
176|Mieszkanie blisko Centrum / Las / 3km od morza .|Gdynia Mały Kack, Sandomierska|54.4868285|18.5275494|36|1|1955|11028|Mieszkanie|0|0|0|0|0|1|0|1|0|secondary
177|Zadbane mieszkanie, gotowe do wprowadzenia.|Gdynia Chylonia, Starogardzka|54.5415937|18.467652411421092|56|3|1972|9446|Mieszkanie|0|1|0|0|0|4|0|1|0|secondary
178|Przytulne mieszkanie dla rodziny! Parter/ po remoncie|Gdynia Oksywie|53.199985|19.640637|49|3|1970|10510|Mieszkanie|0|0|0|0|0|Parter|0|0|0|secondary
179|Dom w zabudowie szeregowej|Gdańsk Osowa, Balcerskiego|54.4306357|18.4699943|130.95|5|1989|11455|Dom szeregowy|0|0|0|0|0|nan|0|0|0|secondary
180|Perełka! Przytulne 4 pok. w świetnej lokalizacji!|Gdynia Redłowo, Legionów|54.4973197|18.5414933|87|4|2005|17241|Mieszkanie|0|1|1|1|1|2|0|1|0|secondary
181|Wyjątkowe mieszkanie Gdańsk Osowa Okazja!|Gdańsk Osowa, Orfeusza|54.4216759|18.4810242|63.08|2|1999|9274|Mieszkanie|0|1|1|1|0|3|0|1|0|secondary
182|Mieszkanie 52,6m, Gdynia Obłuże, 3 pokoje, po remoncie|Gdynia Obłuże, Płk. Dąbka 203D/9|54.5216208|18.5274712|52.6|3|1977|1169|Mieszkanie|0|0|0|0|0|4|0|0|0|secondary
183|Mieszkanie 4 pokojowe z potencjałem|Gdańsk Brzeźno, Mazurska|54.4079205|18.6348336|58.8|4|1964|15900|Mieszkanie|0|1|1|0|0|1|0|1|0|secondary
184|Mieszkanie - Gdańsk Aniołki|Gdańsk Aniołki, Marsz. Ferdynanda Focha|54.3584844|18.6289465|52.51|3|2014|19025|Mieszkanie|0|1|1|1|1|4|0|0|0|secondary
185|4 pokoje w Gdańsku za dobrą cenę!|Gdańsk Św. Wojciech, Trakt Świętego Wojciecha|54.3432715|18.6444728|59.45|4|1920|8394|Mieszkanie|0|0|0|1|0|1|0|1|0|secondary
186|Stogi -> Plaża -> Ustawne 2 pokoje -> 34m|Gdańsk Stogi, Tamka 16|54.358222|18.7053712|34.05|2|1980|12305|Mieszkanie|0|0|0|0|0|1|0|0|0|secondary
187|Piękne mieszkanie po remoncie! 2 pok. premium|Sopot|54.4400543|18.5623213|33|2|1980|16664|Mieszkanie|0|0|1|0|0|Parter|0|0|0|secondary
188|3-pokojowe na ostatnim 3 piętrze! Spółdz.włas. kw.|Gdańsk Dolne Miasto|54.3421707|18.6608919|49|3|1961|12551|Mieszkanie|0|0|0|0|0|3|0|0|0|secondary
189|Elegancka rezydencja z basenem i 15 min do centrum|Gdańsk Matarnia - Rębiechowo, Astronautów|52.183089|20.974357|326.3|6|2006|11186|Dom wolnostojący|1|1|1|1|0|nan|0|0|1|secondary
190|Dom w Sopocie nad morzem|Sopot Wyścigi / Karlikowo, Skarpowa|54.434718450000005|18.57205315044382|311.8|10|1974|19564|Dom wolnostojący|1|0|0|1|0|nan|0|0|1|secondary
191|Apartament z dużym, 60 m2  tarasem|Gdańsk Brzeźno, Bogumiła Kobieli|50.114025|19.620555|79.5|3|2023|18855|Mieszkanie|0|1|1|1|1|3|0|0|0|secondary
192|Nasze Miejsce - 58m2 - 3 pokoje - hala garażowa - komórka - balkon|Gdańsk Ujeścisko-Łostowice, Niepołomicka|54.31742615|18.593106398457195|57.78|3|2022|12963|Mieszkanie|1|1|1|1|1|1|0|0|0|secondary
193|Gdańsk 2 pokoje, hala garażowa, blisko PKM, ostatnie piętro|Gdańsk Kokoszki, Nowatorów 7|54.3753678|18.4627493|50|2|2021|12000|Mieszkanie|0|0|0|0|0|2|0|0|0|secondary
194|Sprzedam 3 pokojowe mieszkanie na Chełmie|Gdańsk Chełm, Marcina Dragana|54.3413128|18.6131005|55.4|3|1985|12365|Mieszkanie|0|1|1|1|0|2|0|1|0|secondary
195|Nowe 3pok. mieszkanie/ bez prowizji|Gdańsk Zakoniczyn, Kmdr. Tadeusza Bramińskiego|54.32409|18.583958|50.5|3|2023|12851|Mieszkanie|0|1|1|1|1|4|0|0|0|secondary
196|2 mieszkania w centrum Sopotu!|Sopot Dolny Sopot, Niepodległości|54.4534263|18.555444|84|4|1960|13095|Mieszkanie|0|1|0|0|0|3|0|0|0|secondary
197|Kawalerka blisko morza   po remocnie|Sopot Wyścigi / Karlikowo, Karlikowska|54.43717905|18.573102396914102|30|1|1920|25967|Mieszkanie|0|0|0|1|0|2|0|1|1|secondary
198|Inwestycja w dolnym sopocie 3 minuty do plaży!|Sopot Dolny Sopot, Jana Jerzego Haffnera|54.44511|18.56571|57.95|2|1940|20915|Mieszkanie|0|1|0|0|0|1|0|0|0|secondary
199|Centrum Sopotu 2 pokoje !!!|Sopot Dolny Sopot, Józefa Czyżewskiego|54.444312|18.56339083579146|53|2|1960|24528|Mieszkanie|0|1|0|0|0|3|0|1|0|secondary
200|Połowa willi w Sopocie|Sopot Górny Sopot, Gen. Władysława Andersa|54.4409724|18.557672995785076|117|3|1910|22650|Mieszkanie|1|0|0|1|0|1|0|0|1|secondary
201|Apartament 3 minuty od plaży !|Sopot Wyścigi / Karlikowo, Bitwy Pod Płowcami|54.4360142|18.576814|92.76|4|2003|19944|Mieszkanie|0|1|0|1|1|3|0|0|0|secondary
202|Mieszkanie w Sopocie Dolnym z widokiem na morze!|Sopot Dolny Sopot, Bohaterów Monte Cassino|54.4429461|18.56110476465278|58.65|2|1920|15857|Mieszkanie|0|1|1|0|0|3|0|1|0|secondary
203|Sopot, 2 lokale z możliwością podziału na 4|Sopot Dolny Sopot, Niepodległości|54.4534263|18.555444|288.8|9|1901|10353|Mieszkanie|0|1|0|0|0|2|0|1|0|secondary
204|Piękny apartament z duszą w dolnym sopocie !|Sopot Dolny Sopot, Kazimierza Wielkiego|54.4388615|18.5712532|11|3|1903|24911|Mieszkanie|0|1|0|1|0|3|0|1|0|secondary
205|3 pokoje blisko plaży!|Sopot Wyścigi / Karlikowo, Karlikowska|54.43717905|18.573102396914102|56|3|1977|1873|Mieszkanie|0|0|0|0|1|3|0|1|0|secondary
206|Mieszkanie w Sopocie 2 min od Molo. Winda|Sopot Dolny Sopot, Grunwaldzka|54.4439776|18.5698066|101.76|3|1910|18573|Mieszkanie|0|1|0|1|1|3|0|1|0|secondary
207|7 pokoi na krótkitermin   wysoka stopa zwrotu|Sopot Dolny Sopot, Gen. Kazimierza Pułaskiego|54.44296785|18.56684989219675|197.38|8|1952|15706|Mieszkanie|0|0|0|0|0|Parter|0|0|0|secondary
208|Atrakcyjne mieszkanie blisko plaży|Sopot Dolny Sopot, Bitwy Pod Płowcami|54.4377812|18.5739307|60|3|1994|20000|Mieszkanie|0|1|1|1|0|1|0|1|0|secondary
209|Idealna inwestycja w Sopocie, kilka minut do plaży|Sopot Kamienny Potok, Wejherowska|54.4535297|18.5550276|37|2|1975|16459|Mieszkanie|0|1|1|0|1|Parter|0|1|1|secondary
210|3 pokoje, widok na zieleń, nowe instalacje|Sopot Górny Sopot, 23 Marca|54.4457838|18.557534097742344|46.|3|1970|18377|Mieszkanie|0|1|0|0|1|5|0|1|0|secondary
211|Mieszkanie do własnej aranżacji 250 m od plaży!|Sopot Dolny Sopot, Parkowa|54.44338255|18.57104360424107|63.3|3|1900|23539|Mieszkanie|0|0|1|0|0|Parter|0|1|0|secondary
212|Idealne pod Wynajem, 15 Minut od Plaży! Obok Lasu!|Sopot Kamienny Potok, Jacka Malczewskiego|54.4511755|18.551126|34.6|2|1971|16031|Mieszkanie|0|0|1|1|0|3|0|1|0|secondary
213|2-pokoje na pierwszym piętrze Gdynia|Gdynia Chylonia, Gniewska|54.5422938|18.4620586|37.07|2|1965|11303|Mieszkanie|0|0|1|0|0|1|0|1|0|secondary
214|3 pokojowe mieszkanie w gdyni cisowej!|Gdynia Cisowa, Zbożowa|54.5435551|18.4462317|55.19|3|1980|9585|Mieszkanie|0|1|1|0|1|7|0|1|0|secondary
215|Pogórze - 3 pok. mieszkanie z widokiem na las!|Gdynia Pogórze, Kmdr. Staniewicza|54.561312|18.498189|62.9|3|1989|906|Mieszkanie|0|1|0|0|0|1|0|1|0|secondary
216|2 duże pokoje 20 min pieszo od plaży !|Gdynia Działki Leśne, Śląska|54.5108872|18.5341714|55.7|2|1956|12370|Mieszkanie|0|0|0|0|0|1|0|1|0|secondary
217|Fantastyczna lokalizacja, 3 pokoje|Gdynia Śródmieście, Stefana Żeromskiego|51.825525|19.303287|59.|3|1931|14865|Mieszkanie|0|0|1|0|0|Parter|0|1|0|secondary
218|2 duże pokoje 20 min pieszo od plaży !|Gdynia Działki Leśne, Śląska|54.5108872|18.5341714|55.7|2|1956|12370|Mieszkanie|0|0|0|0|0|1|0|1|0|secondary
219|Mieszkanie nielam w centrum gdyni|Gdynia Działki Leśne, Witomińska|54.5115947|18.5315591|47.88|2|1970|14411|Mieszkanie|0|1|1|1|1|3|0|1|0|secondary
220|Nowoczesny apartament w centrum gdyni|Gdynia Śródmieście, Stefana Żeromskiego|51.825525|19.303287|38.94|2|2020|20288|Mieszkanie|0|1|0|1|1|3|0|0|0|secondary
221|Kawalerka w sercu gdyni   nowa inwestycja|Gdynia Śródmieście, Stefana Żeromskiego|51.825525|19.303287|25.64|1|2023|26326|Mieszkanie|0|1|0|0|1|2|0|0|0|secondary
222|5 mieszkań   inwestycja w samym sercu gdyni!|Gdynia Śródmieście, Wójta Radtkego|54.5220319|18.5322481|147.93|5|1929|2021|Mieszkanie|0|1|0|0|0|4|0|1|0|secondary
223|Apartamanet 3 pok. Invest Komfort Gdynia Orłowo|Gdynia Orłowo, Bernadowska|54.4633744|18.550913|62.11|3|2020|29786|Mieszkanie|1|1|0|1|1|1|0|0|0|secondary
224|Centrum Gdyni! 800m do Dworca!|Gdynia Działki Leśne, Śląska|54.5108872|18.5341714|78.5|3|1938|13414|Mieszkanie|0|0|1|0|0|1|0|1|0|secondary
225|Gotowa inwestycja! 2 lokale mieszkalne!|Gdynia Śródmieście, 3 Maja|53.8429941|22.981415738228378|48|3|1970|1854|Mieszkanie|0|0|0|0|0|Parter|0|0|0|secondary
226|Przestronna kamienica z dużą piwnicą spiżarnią|Gdynia Działki Leśne, Warszawska|54.5189181|18.5284874|67|2|1938|11149|Mieszkanie|0|0|0|0|0|2|0|1|0|secondary
227|Okna na świętojańską! dwa mieszkania!|Gdynia Śródmieście, Świętojańska|54.5205845|18.5428249|141.39|6|1927|10468|Mieszkanie|0|1|0|0|0|3|0|1|0|secondary
228|Mieszkanie w ścisłym centrum Gdyni !!!|Gdynia Śródmieście, Stefana Żeromskiego|51.825525|19.303287|53.91|3|1964|14821|Mieszkanie|0|1|0|1|1|6|0|0|0|secondary
229|2 pokoje na krótkitermin   WINDA   msc postojowe|Gdynia Śródmieście, Świętojańska|54.5205845|18.5428249|33.6|2|1958|1845|Mieszkanie|0|0|0|1|1|3|0|1|0|secondary
230|Luksusowy apartament w idelanej lokalizacji|Gdynia Wzgórze św. Maksymiliana, Kazimierza Górskiego|54.497285|18.5318575|90.61|4|2021|19369|Mieszkanie|0|1|1|1|1|11|0|0|0|secondary
231|Wyjątkowe mieszkanie w centrum Gdyni, blisko lasu!|Gdynia Redłowo, Janusza Korczaka|54.4936819|18.5431194|101.58|4|1997|11154|Mieszkanie|0|0|1|0|1|5|0|0|0|secondary
232|2 pokojowe mieszkanie- inwestycja w centrum Gdyni!|Gdynia Działki Leśne, Śląska|54.5108872|18.5341714|45|2|1962|11889|Mieszkanie|0|1|0|0|0|4|0|1|0|secondary
233|Świetna lokalizacja, 4 pokoje, ciche miejsce|Gdynia Wzgórze św. Maksymiliana, Elizy Orzeszkowej|54.5055971|18.540187|92.81|4|1955|18845|Mieszkanie|0|0|0|0|0|2|0|1|0|secondary
234|Nieruchomość premium w centrum miasta!|Gdynia Śródmieście, Zygmunta Augusta|52.230906|18.208535|77.0|4|2015|22721|Mieszkanie|0|1|1|1|1|1|0|0|0|secondary
235|Centrum Gdyni - 3 pokoje - idealnie skomunikowane|Gdynia Działki Leśne, Morska|54.5216208|18.5274712|5|3|1970|12000|Mieszkanie|0|1|0|1|1|2|0|0|0|secondary
236|Mieszkanie w samym Centrum Gdyni !|Gdynia Wzgórze św. Maksymiliana, Świętojańska|52.2490011|21.013168108284603|34.5|2|1979|17246|Mieszkanie|0|1|0|0|0|3|0|1|0|secondary
237|Apartament inwestycyjny w ścisłym centrum|Gdynia Wzgórze św. Maksymiliana, Kazimierza Górskiego|54.497285|18.5318575|45.31|2|2022|19753|Mieszkanie|0|0|0|0|1|2|0|0|0|secondary
238|Przeszklony apartament   wysokość sufitów 3 M|Gdynia Śródmieście, Jana Z Kolna|54.5230678|18.5340992|114.34|4|2023|20981|Mieszkanie|1|1|0|1|1|2|0|1|0|secondary
239|Mieszkanie na świętojańskiej|Gdynia Śródmieście, Świętojańska|54.5205845|18.5428249|87.5|4|1930|19314|Mieszkanie|0|0|0|1|1|1|0|1|0|secondary
240|Idealne mieszkanie pod wynajem Gdynia blisko plaży|Gdynia Działki Leśne, Śląska|54.5108872|18.5341714|59.64|2|1950|10480|Mieszkanie|0|0|0|0|0|4|0|1|0|secondary
241|Mieszkanie z widokiem na zieleń! Do wejścia!|Gdynia Redłowo, Bohaterów Starówki Warszawskiej|54.495080650000006|18.549081738937574|40.78|2|1970|16405|Mieszkanie|0|1|0|1|1|3|0|1|0|secondary
242|Piękne mieszkanie tuż przy Gdyni Śródmieściu !!!|Gdynia Działki Leśne, Witomińska|54.5115947|18.5315591|67.3|4|1963|11129|Mieszkanie|0|1|0|1|1|5|0|0|0|secondary
243|Okna na świętojańską! balkon!|Gdynia Śródmieście, Świętojańska|54.5205845|18.5428249|108.13|5|1927|12013|Mieszkanie|0|1|0|0|0|3|0|1|0|secondary
244|Mieszkanie do generalnego remontu!|Gdynia Śródmieście, Świętojańska|54.5205845|18.5428249|33.26|2|1927|11575|Mieszkanie|0|0|0|0|0|3|0|1|0|secondary
245|3 kawalerki na wynajem w centrum Gdyni|Gdynia Śródmieście, Antoniego Abrahama|54.5204215|18.5414423|99.29|3|1960|1157|Mieszkanie|0|1|0|0|0|1|0|1|0|secondary
246|Centrum Gdyni, wszędzie blisko świetna komunikacja|Gdynia Działki Leśne, Warszawska|54.5189181|18.5284874|66.76|3|1963|10920|Mieszkanie|0|1|0|1|0|3|0|1|0|secondary
247|Mieszkanie w ścisłym centrum gdyni|Gdynia Kamienna Góra, Juliusza Słowackiego|51.970091|19.293427|34.54|2|1937|1734|Mieszkanie|0|0|1|0|0|nan|0|0|1|secondary
248|3 pok. Działki Leśne Gdynia - dod. 2 garaże!|Gdynia Działki Leśne, Słupecka|54.5181429|18.528057721824688|75.6|3|1939|14150|Mieszkanie|1|0|1|1|0|2|0|1|0|secondary
249|Centrum Gdyni, po remoncie, ładne|Gdynia Śródmieście, Antoniego Abrahama|54.5204215|18.5414423|48.6|3|1955|18827|Mieszkanie|0|0|0|0|0|1|0|0|0|secondary
250|4-pokojowe   balkon   parking   komunikacja   las|Gdynia Demptowo, Skarbka|54.53128985|18.455072197274912|86.3|4|2008|7995|Mieszkanie|0|1|0|1|0|3|0|0|0|secondary
251|Sprzedam 3 pokoje - gdynia  z widokiem na morze!|Gdynia Witomino, Strażacka|54.5003054|18.50996062558812|47.8|3|1978|12531|Mieszkanie|0|1|0|1|1|9|0|1|0|secondary
252|Dwa pokoje z ogródkiem w gdyni !|Gdynia Wiczlino, Kormorana|54.50078055|18.411560800415288|35|2|2017|14257|Mieszkanie|0|0|0|1|0|Parter|0|0|1|secondary
253|Witomino, 2 pokoje, pokój dzienny od południa|Gdynia Witomino, Chwarznieńska|54.4989129|18.5052618|44.5|2|1978|1020|Mieszkanie|0|1|0|0|0|4|0|1|0|secondary
254|Ładne 2 pokoje, dobra komunikacja|Gdynia Karwiny, Janiny Porazińskiej|54.4737586|18.483003175618|48.|2|1984|11390|Mieszkanie|0|1|0|0|0|3|0|1|0|secondary
255|Przytulne mieszkanie - gdynia wiczlino !|Gdynia Wiczlino, Kormorana|54.50078055|18.411560800415288|35|2|2017|12429|Mieszkanie|0|1|0|1|0|1|0|0|0|secondary
256|Doskonała kawalerka na inwestycję|Gdynia Dąbrowa, Lubczykowa|54.4738306|18.470557542281156|34|1|2000|13088|Mieszkanie|0|0|0|1|0|1|0|0|0|secondary
257|Idealne mieszkanie dla rodziny blisko lasu.|Gdynia Dąbrowa, Rdestowa|54.4720193|18.465424|62.6|3|1991|9026|Mieszkanie|0|1|0|0|0|3|0|1|0|secondary
258|Ładnie wykończone, własny park na osiedlu|Gdańsk Łostowice, Niepołomicka|54.31742615|18.593106398457195|42.47|2|2023|14834|Mieszkanie|0|1|0|1|1|2|0|0|0|secondary
259|Nowoczesne, dwupokojowe mieszkanie z ogródkiem|Gdańsk Zakoniczyn, Jerzego Świrskiego|54.321784|18.5818245|50.66|2|2019|12633|Mieszkanie|0|0|1|0|1|Parter|0|0|1|secondary
260|3 pok. Gdańsk dwupoziomowe|Gdańsk Łostowice, Hokejowa|54.3817696|18.6055111|64.26|3|2013|9788|Mieszkanie|0|1|0|1|1|3|0|0|0|secondary
261|Przestronne 3 pokoje, świetnie nasłonecznione|Gdańsk Maćkowy, Kazimierza Wielkiego|54.30468895|18.615566202556185|57.3|3|2020|12199|Mieszkanie|0|1|0|1|1|4|0|0|0|secondary
262|Mieszkanie 5-pok, przestronne 100m2|Gdańsk Łostowice, Jana Kielasa|54.304636|18.584798|78.4|5|2007|10191|Mieszkanie|0|1|0|0|0|3|0|0|0|secondary
263|Przestronne mieszkanie idealne dla rodziny!|Gdańsk Maćkowy, Kazimierza Wielkiego|54.30468895|18.615566202556185|69.28|3|2014|9656|Mieszkanie|0|1|0|1|0|2|0|0|0|secondary
264|Sprzedam 3 pokoje Gdańsk Południe!|Gdańsk Łostowice, Niepołomicka|54.31742615|18.593106398457195|54.43|3|2022|13761|Mieszkanie|0|0|0|0|1|Parter|0|0|1|secondary
265|3 pokoje z balkonem  mieszkanie w urokliwym miejsc|Gdańsk Łostowice, Jana Kielasa|54.304636|18.584798|69.7|3|2009|10890|Mieszkanie|0|1|0|1|0|1|0|0|0|secondary
266|2 pokoje Ciche,spokojne miejsce blisko obwodnicy|Gdańsk Zakoniczyn, Jaworzniaków|54.3164193|18.5705905|49.37|2|2015|12903|Mieszkanie|0|1|0|1|0|Parter|0|0|0|secondary
267|Mieszkanie 3 pok. w stanie deweloperskim|Gdańsk Łostowice, Wielkopolska|54.3171537|18.590914|66.14|3|2023|9828|Mieszkanie|0|1|0|1|1|2|0|0|0|secondary
268|3 pokoje z dużym balkonem !!!|Gdańsk Maćkowy, Władysława Jagiełły|54.30261565|18.614151289047136|54.51|3|2023|11924|Mieszkanie|0|1|0|1|1|3|0|1|0|secondary
269|3 pokojowe mieszkanie z ogrodem i dużą komórką|Gdańsk Łostowice, Jana Kielasa|54.304636|18.584798|67.7|3|2008|10325|Mieszkanie|0|1|1|1|0|Parter|0|0|1|secondary
270|Wygodne 3 pokoje z balkonem|Gdańsk Łostowice, Olimpijska|51.746622|19.413194|66.1|3|2012|10439|Mieszkanie|0|1|0|0|0|3|0|0|0|secondary
271|Nowoczesne mieszkanie 4-pok z dużą piwnicą|Gdańsk Łostowice, Świętokrzyska|54.3174617|18.5852147|86.19|4|2019|11591|Mieszkanie|0|1|0|1|0|1|0|0|0|secondary
272|3 pokoje z dużym balkonem|Gdańsk Maćkowy, Kazimierza Wielkiego|54.30468895|18.615566202556185|54.47|3|2020|13769|Mieszkanie|0|1|0|1|1|2|0|0|0|secondary
273|Komfortowe mieszkanie ze słonecznym dużym balkonem|Gdańsk Zakoniczyn, Konrada Guderskiego|54.3176085|18.5686315|33|2|2009|13939|Mieszkanie|0|1|0|1|0|1|0|0|0|secondary
274|Mieszkanie 2 pok. w stanie deweloperskim|Gdańsk Łostowice, Wielkopolska|54.3171537|18.590914|50.5|2|2023|10297|Mieszkanie|0|1|0|1|1|5|0|0|0|secondary
275|Przytulne 2 pokoje z dużym balkonem|Gdańsk Łostowice, Hokejowa|54.3817696|18.6055111|44.61|2|2008|12307|Mieszkanie|0|1|0|0|0|2|0|0|0|secondary
276|2 pokoje z balkonem od południa|Gdańsk Zakoniczyn, Aleksandra Dulin'a|54.32123|18.577151|49.75|2|2012|12040|Mieszkanie|0|1|0|0|1|2|0|0|0|secondary
277|Wyjątkowe mieszkanie w stylu loftowym !|Gdańsk Łostowice, Wielkopolska|54.3171537|18.590914|40.65|2|2023|13506|Mieszkanie|0|1|0|1|1|3|0|0|0|secondary
278|Przytulne 2 pokoje na Łostowicach|Gdańsk Łostowice, Andrzeja Grubby|54.306221|18.593622|34.61|2|2015|14996|Mieszkanie|0|1|0|0|0|1|0|0|0|secondary
279|Nowe, dwupokojowe mieszkanie z balkonem|Gdańsk Zakoniczyn, Jerzego Świrskiego|54.321784|18.5818245|42.94|2|2018|13903|Mieszkanie|0|1|0|0|1|3|0|0|0|secondary
280|4 pokoje, 2 balkony, piwnica i miejsce w hali!|Gdańsk Jasień, Leszczynowa|54.3380783|18.558418226277837|85.7|4|2013|11039|Mieszkanie|0|1|1|1|1|4|0|0|0|secondary
281|Sprzedam 2 pokojowy apartament Gdańsk Morena!|Gdańsk Morena, Stanisława Lema|54.349464499999996|18.588641739056754|39.8|2|2015|20075|Mieszkanie|0|1|0|1|1|4|0|0|0|secondary
282|Wyjątkowa nieruchomość w wysokim standardzie|Gdańsk Morena, Czesława Miłosza|54.3483126|18.589546722424245|94.07|4|2014|15935|Mieszkanie|0|1|0|1|1|4|0|0|0|secondary
283|Stylowe 3 pokoje z przestronnym tarasem|Gdańsk Morena|54.378291|18.487005|72.8|3|2006|12349|Mieszkanie|0|1|0|1|0|Parter|0|0|0|secondary
284|3 pokoje/Parter/Inpro/Morena|Gdańsk Morena, Piekarnicza|54.35317965|18.58900823253105|65.5|3|2006|12214|Mieszkanie|0|1|0|1|0|Parter|0|0|0|secondary
285|Słoneczne 3-pokojowe  mieszkanie Jasień Bulwary|Gdańsk Jasień, Krzysztofa Komedy|54.3447321|18.5324671|59|3|2018|15763|Mieszkanie|0|1|0|1|1|3|0|0|0|secondary
286|3 pokoje z balkonem i widokiem na jezioro!|Gdańsk Jasień, Życzliwa|54.344694000000004|18.529633801035885|61.68|3|2023|11916|Mieszkanie|0|1|1|1|1|1|0|0|0|secondary
287|Przytulne mieszkanie 2 pok 47 m2 z balkonem!|Gdańsk Jasień, Konrada Guderskiego|54.3235259|18.556442|46.6|2|2012|12983|Mieszkanie|0|1|0|1|0|Parter|0|0|0|secondary
288|Wygodne 3 pokojowe mieszkanie z balkonem|Gdańsk Kiełpinek, Przytulna|54.352915100000004|18.529278327168402|49.38|3|2016|15391|Mieszkanie|0|1|0|1|1|3|0|0|0|secondary
289|3 pokoje z dwoma balkonami, dwoma miejscami w hali|Gdańsk Jasień, Krzysztofa Komedy|54.3447321|18.5324671|75.67|3|2020|10308|Mieszkanie|0|1|1|1|1|2|0|0|0|secondary
290|Słoneczne mieszkanie z ogrodem !!!|Gdańsk Jasień, Kartuska|54.3491931|18.5269229|51|2|2011|13039|Mieszkanie|0|0|0|1|1|Parter|0|1|1|secondary
291|Wiszące Ogrody 2 pokoje oddzielna kuchnia|Gdańsk Jasień, Przytulna|54.352915100000004|18.529278327168402|48.5|2|2009|12969|Mieszkanie|0|1|1|0|0|2|0|1|0|secondary
292|Stylowe 3 pokoje z przestronnym  tarasem|Gdańsk Morena|54.378291|18.487005|72.8|3|2006|12349|Mieszkanie|0|1|0|1|0|Parter|0|0|0|secondary
293|Zadbane mieszkanie 3-pok z dużym balkonem|Gdańsk Jasień, Leszczynowa|54.3380783|18.558418226277837|53.59|3|2010|1250|Mieszkanie|0|1|0|1|1|1|0|0|0|secondary
294|3 pokoje Gdańsk Kiełpinek|Gdańsk Kiełpinek, Przytulna|54.352915100000004|18.529278327168402|67|3|2003|13418|Mieszkanie|0|1|0|0|0|1|0|1|0|secondary
295|2 tarasy, dwupoziomowe jasień|Gdańsk Jasień, Potęgowska|54.3314076|18.550409385581524|80.1|4|2012|10599|Mieszkanie|0|0|0|1|1|3|0|0|0|secondary
296|2 pokoje z dwoma tarasami i widokiem na las|Gdańsk Jasień, Prof. Mariana Osińskiego|54.3500699|18.537081|47.01|2|2021|13167|Mieszkanie|0|1|0|1|1|5|0|0|0|secondary
297|Przestronne 3 pokoje z dużym balkonem i halą!|Gdańsk Jasień, Leszczynowa|54.3380783|18.558418226277837|71.14|3|2017|11231|Mieszkanie|0|1|0|1|1|2|0|0|0|secondary
298|Duży apartament 4 pok. na Morenie|Gdańsk Morena, Myśliwska|54.3457315|18.583013955487807|93.4|4|2016|12837|Mieszkanie|0|1|0|1|1|1|0|0|0|secondary
299|Wiszące Ogrody 4 pokoje 2 ogródki|Gdańsk Kiełpinek, Taneczna|54.353581|18.658209|72.5|4|2010|16538|Mieszkanie|0|0|1|0|1|Parter|0|1|0|secondary
300|Wiszące Ogrody 3 pokoje 2 ogródki|Gdańsk Kiełpinek, Taneczna|54.350017|18.643181|72.5|3|2010|16538|Mieszkanie|0|0|1|0|1|Parter|0|1|0|secondary
301|Nowe z ogródkiem ok 100m/2|Gdańsk Jasień, Gen. Władysława Andersa|54.35109585|18.5514744185204|75.73|4|2022|16493|Mieszkanie|0|0|0|1|1|Parter|0|0|1|secondary
302|Wyjątkowe, duże, komfort mieszkania jak w domu|Gdańsk Morena, Myśliwska|54.3457315|18.583013955487807|146|5|2007|1671|Mieszkanie|1|1|1|1|0|Parter|0|0|1|secondary
303|Świetna lokalizacja - blisko PKM.|Gdańsk Matemblewo, Potokowa|54.3636631|18.5598184|50.4|2|1990|13194|Mieszkanie|0|1|0|0|0|Parter|0|1|1|secondary
304|Mieszkanie z pięknym widokiem na morenie !|Gdańsk Morena, Antoniego Dobrowolskiego|52.234432|18.310985|73.7|4|1979|12198|Mieszkanie|0|1|1|0|0|4|0|1|0|secondary
305|3 pokoje z balkonem i piwnicą w centrum Moreny!|Gdańsk Morena, Warneńska|54.3565859|18.58492095338056|62.7|3|1980|11148|Mieszkanie|0|0|1|0|0|3|0|1|0|secondary
306|Mieszkanie z antresola, 4 pokoje.|Gdańsk Jasień, Bażantowa|54.3482702|18.5518862|70|4|2015|12500|Mieszkanie|0|1|0|1|0|2|0|0|0|secondary
307|3 pokoje z pieknym widokiem|Gdańsk Morena, Romana Wyrobka|54.3593318|18.5739104|62.7|3|1980|11148|Mieszkanie|0|1|0|0|1|7|0|1|0|secondary
308|3 pokoje z balkonem, miejscem w hali i piwnicą!|Gdańsk Morena, Prof. Stefana Hausbrandta|54.34773575|18.584768542581777|52.15|3|2018|1599|Mieszkanie|0|1|1|1|1|1|0|0|0|secondary
309|Jak nowe, z pięknym widokiem i garderobą!|Gdańsk Jasień, Tadeusza Jasińskiego|54.33643045|18.539236899935283|50.54|2|2021|13831|Mieszkanie|0|1|0|1|1|4|0|0|0|secondary
310|Zadbane, ustawne 2 pokoje z garderobą i halą!|Gdańsk Morena, Czesława Miłosza|54.3483126|18.589546722424245|48.84|2|2014|15254|Mieszkanie|0|1|0|1|1|1|0|0|0|secondary
311|Słoneczna Morena/ 2 miejsca w hali !|Gdańsk Morena, Czesława Miłosza|54.3483126|18.589546722424245|86.43|3|2014|13653|Mieszkanie|0|1|0|1|1|2|0|0|0|secondary
312|Pod lasem, kameralne osiedle, taras i 3 balkony!!|Gdańsk Morena, Myśliwska|54.3457315|18.583013955487807|95|4|2007|1283|Mieszkanie|1|1|0|1|0|1|0|0|0|secondary
313|2 pokojowe ul. Damroki Gdańsk|Gdańsk Jasień, Damroki|54.339937500000005|18.56511960088872|47.6|2|1993|12563|Mieszkanie|0|1|0|1|0|3|0|0|0|secondary
314|Dwupokojowe mieszkanie na Morenie!|Gdańsk Morena, Myśliwskie Wzgórze|54.348280700000004|18.562206536372713|42.1|2|2015|14228|Mieszkanie|0|1|0|1|1|4|0|0|0|secondary
315|Nowo wykończona kawalerka z miejscem w hali|Gdańsk Jasień, Kartuska|54.3491931|18.5269229|27.|1|2021|16544|Mieszkanie|1|1|0|1|1|1|0|0|0|secondary
316|2 pok. 47 m2 Gudreskiego /miejsce post. w cenie|Gdańsk Jasień, Konrada Guderskiego|54.3235259|18.556442|47|2|2011|11468|Mieszkanie|0|1|0|1|0|3|0|0|0|secondary
317|Mieszkanie w super lokalizacji!!!|Gdańsk Jasień, Prof. Jerzego Stankiewicza|54.33294735|18.553369399999994|48.5|2|2023|11381|Mieszkanie|0|1|0|1|1|4|0|0|0|secondary
318|Przestronna kawalerka na gdańskim Jasieniu!|Gdańsk Jasień, Kartuska|54.3491931|18.5269229|27.|1|2023|145|Mieszkanie|0|1|0|1|1|3|0|0|0|secondary
319|Gdańsk Leskiego 3 pokoje  w świetnej lokalizacji|Gdańsk Jasień, Kazimierza Leskiego|54.3238638|18.5586781|52.4|3|2015|11431|Mieszkanie|0|1|1|1|0|3|0|0|0|secondary
320|Nowe, wykończone, gotowe do zamieszkania.|Gdańsk Jasień, Tadeusza Jasińskiego|54.33643045|18.539236899935283|44|2|2023|13614|Mieszkanie|0|1|0|1|1|1|0|0|0|secondary
321|Przymorze - jasne mieszkanie 3 pokojowe!|Gdańsk Przymorze, Lęborska|54.40420975|18.577092221732137|68.07|3|2008|1939|Mieszkanie|0|1|0|1|1|2|0|0|0|secondary
322|Mieszkanie 3 pokojowe na gdańskim Przymorzu!|Gdańsk Przymorze, Lęborska|54.40420975|18.577092221732137|59.41|3|2008|20165|Mieszkanie|0|1|1|1|1|1|0|0|0|secondary
323|Gotowiec inwestycyjny! z najemcami, 5 pokoi|Gdańsk Przymorze, Kołobrzeska|54.4016029|18.578342075981595|54|5|1970|1|Mieszkanie|0|0|0|0|0|Parter|0|1|0|secondary
324|Piękne mieszkanie w  idealnej lokalizacji|Gdańsk Przymorze, Prezydenta Lecha Kaczyńskiego|54.41511505|18.59618770261273|45|2|1970|14444|Mieszkanie|0|0|0|0|0|4|0|0|0|secondary
325|Super mieszkanie dla rodziny  na Przymorzu|Gdańsk Przymorze, Obrońców Wybrzeża|54.4093835|18.6009942|7|4|1973|11806|Mieszkanie|0|1|0|0|1|8|0|0|0|secondary
326|Wykończony apartament z widokiem na zatokę!|Gdańsk Przymorze, Prezydenta Lecha Kaczyńskiego|54.41511505|18.59618770261273|72.09|3|2022|30000|Mieszkanie|0|1|1|1|1|6|0|0|0|secondary
327|Mieszkanie z widokiem na morze !|Gdańsk Przymorze, Chłopska|54.4070557|18.59242040007326|77|4|2010|22000|Mieszkanie|0|1|0|1|1|7|0|0|0|secondary
328|Stylowe mieszkanie blisko plaży w Jelitkowie|Gdańsk Przymorze, Obrońców Wybrzeża|54.4093835|18.6009942|40.88|2|2018|20059|Mieszkanie|0|1|0|1|1|4|0|0|0|secondary
329|Mieszkanie po generalnym remoncie z dwoma balkonam|Gdańsk Żabianka, Pomorska|54.4161057|18.5711819|62.9|3|1970|17488|Mieszkanie|0|1|0|0|1|8|0|1|0|secondary
330|Wyremontowane mieszkanie blisko morza|Gdańsk Przymorze, Piastowska|54.4158038|18.5869742|46|2|1966|14348|Mieszkanie|0|1|0|0|1|1|0|1|0|secondary
331|Idelanie skomunikowane  4 pokoje widok na morze|Gdańsk Żabianka, Pomorska|54.4161057|18.5711819|66.7|4|1975|12399|Mieszkanie|0|1|0|1|1|7|0|1|0|secondary
332|Kameralne mieszkanie-duży balkon10 minut do Morza|Gdańsk Przymorze, Prezydenta Lecha Kaczyńskiego|54.41511505|18.59618770261273|57.5|3|2009|20348|Mieszkanie|0|1|1|1|1|1|0|1|0|secondary
333|3-pokojowe mieszkanie na zaspie !|Gdańsk Zaspa, Kombatantów|54.3984873|18.6094337|50.|3|1982|13347|Mieszkanie|0|1|0|1|1|Parter|0|1|1|secondary
334|Mieszkanie na przymorzu blisko morza|Gdańsk Przymorze, Obrońców Wybrzeża|54.4093835|18.6009942|46|2|1973|13674|Mieszkanie|0|1|0|0|1|1|0|1|0|secondary
335|Mieszkanie z potencjałem na Gdańskiej Zaspie|Gdańsk Zaspa, Dywizjonu 303|54.3902402|18.6025372|62.4|3|1979|13446|Mieszkanie|0|1|0|0|1|5|0|0|0|secondary
336|3 pokoje po remoncie zaledwie 900 m od plaży!|Gdańsk Żabianka, Tysiąclecia|54.41739645|18.588099131792454|40.86|3|1970|18331|Mieszkanie|0|0|1|0|0|4|0|1|0|secondary
337|Aviator, Duży Balkon 25 Minut na Plaże! Obok Parku|Gdańsk Zaspa, Aleja Jana Pawła Ii|54.3942518|18.6017644|48.15|2|2015|18690|Mieszkanie|0|1|1|0|1|6|0|0|0|secondary
338|Mieszkanie inwestycyjne 10 min od morza|Gdańsk Przymorze, Piastowska|54.4158038|18.5869742|31.6|2|1964|14241|Mieszkanie|0|0|0|0|0|4|0|1|0|secondary
339|Kawalerka z pełnym wyposażeniem, Parter|Gdańsk Przymorze, Prezydenta Lecha Kaczyńskiego|54.41511505|18.59618770261273|27|1|1975|21296|Mieszkanie|0|0|0|1|0|Parter|0|0|0|secondary
340|Tylko u nas - doskanała lokalizacja!|Gdańsk Przymorze, Olsztyńska|54.4032338|18.6048565|38|2|1982|15500|Mieszkanie|0|1|0|0|0|3|0|0|0|secondary
341|2-pokojowe mieszkanie blisko morza, Przymorze.|Gdańsk Przymorze, Tysiąclecia|52.553388|19.689276|42.|2|1960|14194|Mieszkanie|0|0|0|0|0|3|0|1|0|secondary
342|Słoneczne mieszkanie blisko plaży|Gdańsk Żabianka, Gdyńska|54.4208998|18.5756725|30.9|1|1974|15178|Mieszkanie|0|0|1|1|1|6|0|1|0|secondary
343|Balkon i południowe i bez prowizji i 4P|Gdańsk Przymorze, Aleja Rzeczypospolitej|54.4034704|18.5910556|38|2|1975|1184|Mieszkanie|0|1|0|0|1|4|0|1|0|secondary
344|Słoneczne, 3 pokojowe mieszkanie|Gdynia Cisowa, Kcyńska|54.544684000000004|18.452085490915223|53.27|3|1980|9949|Mieszkanie|0|1|0|0|0|7|0|0|0|secondary
345|Mieszkanie - Gdańsk Chełm|Gdańsk Chełm, Henryka Hubertusa Jabłońskiego|54.3348532|18.6255826|65.8|3|1998|10486|Mieszkanie|0|0|0|0|0|Parter|0|0|0|secondary
346|3 Pokoje Gdańsk Przymorze Kołobrzeska|Gdańsk Przymorze, Kołobrzeska|54.4016029|18.578342075981595|52.9|3|1972|14159|Mieszkanie|0|1|1|0|1|3|0|1|0|secondary
347|Mieszkanie - Gdynia Grabówek|Gdynia Grabówek, Morska|51.717525|19.448648|44.81|3|1953|801|Mieszkanie|0|0|0|0|0|Parter|0|1|0|secondary
348|3 pokoje z widokiem na Park Oruński|Gdańsk Orunia Górna, Platynowa|54.3243663|18.617353|60.5|3|2012|12397|Mieszkanie|0|1|0|1|0|3|0|0|0|secondary
349|Przestronne 4 pokojowe mieszkanie w Gdańsku!|Gdańsk Orunia Górna, Krzemowa|54.32637135|18.6197755|78.43|4|1990|8670|Mieszkanie|0|1|1|0|0|4|0|1|0|secondary
350|4 pokojowe mieszkanie na kameralnym osiedlu|Gdańsk Chełm, Stanisława Hebanowskiego|54.3331645|18.6269412|79.33|4|2005|12227|Mieszkanie|0|1|0|1|0|3|0|0|0|secondary
351|Dwustronne, słoneczne mieszkanie dla rodziny|Gdańsk Ujeścisko, Piotrkowska|54.32948974999999|18.58445929115349|62.6|3|2001|11581|Mieszkanie|0|1|1|0|0|3|0|1|0|secondary
352|Dużo zieleni na osiedlu ! duży balkon !|Gdańsk Ujeścisko, Cedrowa|54.378291|18.487005|42.63|2|2019|16397|Mieszkanie|0|1|0|0|1|1|0|0|0|secondary
353|Ogródek   Miejsce w hali   Dobra komunikacja|Gdańsk Ujeścisko, Piotrkowska|54.32948974999999|18.58445929115349|60.68|3|2011|11767|Mieszkanie|0|0|0|1|1|Parter|0|0|1|secondary
354|Dwupoziomowe, 4 pokojowe z 2 łazienkami|Gdańsk Ujeścisko, Nieborowska|54.3299616|18.6051167|87.53|4|2008|10728|Mieszkanie|1|1|1|1|0|3|0|0|0|secondary
355|Dwupoziomowe mieszkanie bezczynszowe z garażem!|Gdańsk Orunia Górna, Gen. Augusta Emila Fieldorfa|54.327379300000004|18.614756344761823|97.3|4|2002|9239|Mieszkanie|1|1|1|1|0|1|0|0|1|secondary
356|3 pokoje Gdańsk Chełm|Gdańsk Chełm, Lotników Polskich|54.33980465|18.63127900754813|51|3|1945|9706|Mieszkanie|0|0|0|1|0|Parter|0|1|0|secondary
357|Klimatyczny apartament na Starym Mieście!|Gdańsk Śródmieście, Kołodziejska|54.3510776|18.6499449|46.41|2|1950|23034|Mieszkanie|0|0|0|0|0|1|0|1|0|secondary
358|"Mieszkanie z ""duszą"" obok Stoczni Gdańskiej!"|Gdańsk Śródmieście, Jana Z Kolna|54.36063635|18.64699622612086|79.1|2|1902|12630|Mieszkanie|0|1|0|1|0|4|0|0|0|secondary
359|Mieszkanie w Kamienicy z prywatną działką|Gdańsk Olszynka, Modra|54.339895|18.671013440856846|120|4|1905|12458|Mieszkanie|0|0|0|0|0|1|0|0|0|secondary
360|Klimatyczne mieszkanie w kamienicy przy Motławie|Gdańsk Śródmieście, Jana Dziewanowskiego|54.3516657|18.66276572459389|83.9|3|1930|16683|Mieszkanie|0|1|0|0|0|1|0|1|0|secondary
361|Gotowiec- dwa mieszkania- 350m do neptuna|Gdańsk Śródmieście, Podwale Przedmiejskie|54.344025200000004|18.664210235955913|51.3|2|1962|16745|Mieszkanie|0|1|1|1|1|6|0|1|0|secondary
362|Gotowiec inwestycyjny - 2-pak (2x 2 pokoje)!|Gdańsk Śródmieście, Żabi Kruk|54.3440214|18.6485482|60.45|4|1962|14541|Mieszkanie|0|0|1|0|0|Parter|0|1|0|secondary
363|4 pokoje, blisko centrum, idealna inwestycja|Gdańsk Dolne Miasto, Chłodna|54.3434157|18.664626653094512|80.5|4|1903|15528|Mieszkanie|0|0|0|0|0|3|0|1|0|secondary
364|Inwestycyjne 2 pokoje Gdańsk Stare miasto|Gdańsk Śródmieście, Podzamcze|54.3540791|18.6549669|40|2|1960|15500|Mieszkanie|0|0|0|1|0|2|0|1|0|secondary
365|2 pokoje, gotowę do wprowadzenia|Gdańsk Śródmieście, 3 Maja|54.3468793|18.6443526|45|2|1920|15333|Mieszkanie|0|0|0|0|0|1|0|1|0|secondary
366|Mieszkanie z ogródkiem - bastion wałowa!|Gdańsk Śródmieście, Wałowa|54.3584458|18.6514304|53.97|3|2018|1760|Mieszkanie|0|1|1|1|1|1|0|0|1|secondary
367|Urokliwe mieszkanie Gdańskiej kamienicy|Gdańsk Dolne Miasto, Zielona|54.3393456|18.6549502|62.5|3|1903|1595|Mieszkanie|0|0|1|0|0|2|0|1|0|secondary
368|Bezczynszowe mieszkanie z ogrodem 600 m2|Gdańsk Siedlce, Leona Wyczółkowskiego|52.074752|20.560629|78.8|3|1932|13947|Mieszkanie|1|0|0|1|0|Parter|0|1|1|secondary
369|Klimatyczne mieszkanie w samym sercu Gdańska !|Gdańsk Śródmieście, Mariacka|54.349596399999996|18.654798666255587|29.8|2|1954|32550|Mieszkanie|0|0|0|0|0|Parter|0|1|0|secondary
370|3 pokoje z ogrodem w spokojnej okolicy!|Gdańsk Siedlce, Legnicka|54.3534966|18.63085888244052|66.5|3|1925|10150|Mieszkanie|0|0|1|0|0|2|0|1|1|secondary
371|Centrum 2 pokoje gotwe do zamieszkania|Gdańsk Śródmieście, Długie Ogrody|54.3471715|18.6617882|50.17|2|1955|14750|Mieszkanie|0|0|0|1|0|1|0|0|0|secondary
372|Gdańsk Centrum -3 pokoje z  tarasem i garażem.|Gdańsk Olszynka|54.3366197|18.6709054|66.9|3|2024|14928|Mieszkanie|1|0|0|1|0|1|0|0|0|secondary
373|Mieszkanie do remontu,10 minut piechotą do centrum|Gdańsk Śródmieście, Dolna Brama|54.3400171|18.647362|101.86|4|1950|7844|Mieszkanie|0|0|0|0|0|2|0|1|0|secondary
374|Gdaśńsk, ul. Mariacka - 2 pokoje z potencjałem|Gdańsk Śródmieście, Mariacka|54.349596399999996|18.654798666255587|45.01|2|1950|29771|Mieszkanie|0|0|0|1|0|2|0|1|0|secondary
375|3 pokoje, 7 minut piechotą do Starego Miasta!|Gdańsk Śródmieście, Siennicka|54.3483443|18.6698787|53.3|3|1970|12477|Mieszkanie|0|0|0|0|1|Parter|0|1|0|secondary
376|Sprzedam 2 pokojowe mieszkanie w Śródmieściu|Gdańsk Śródmieście, Wygon|54.35024285|18.671886639645734|44|2|1940|14091|Mieszkanie|0|0|1|1|0|Parter|0|1|0|secondary
377|Po remoncie, blisko Starego Miasta|Gdańsk Śródmieście, Długie Ogrody|54.3471715|18.6617882|37|2|1960|1743|Mieszkanie|0|1|0|0|0|1|0|1|0|secondary
378|Mieszkanie na Starym Mieście - ul. Św. Ducha!|Gdańsk Śródmieście, Św. Ducha|54.3509403|18.6503584|52.7|2|1957|18786|Mieszkanie|0|0|0|0|0|1|0|1|0|secondary
379|II poziomowe z ogródkiem i garażem|Gdańsk Siedlce, Kartuska|53.041656|18.706446|116.7|3|2010|9417|Mieszkanie|1|0|0|1|0|Parter|0|0|1|secondary
380|3 pokoje w gdańskim Śródmieściu!|Gdańsk Śródmieście, Krosna|54.356981|18.655829|85.5|3|1930|9591|Mieszkanie|0|0|0|0|0|3|0|1|0|secondary
381|Mieszkanie 4 pok w centrum w pięknej kamienicy|Gdańsk Śródmieście, Krosna|54.356981|18.655829|87.6|4|1900|1106|Mieszkanie|0|0|0|0|0|1|0|1|0|secondary
382|Apartament inwestycyjny w prestiżowej lokalizacji|Gdańsk Śródmieście, Ks. Jerzego Popiełuszki|52.075702|20.469351|49.04|2|2023|18760|Mieszkanie|0|1|0|1|1|1|0|1|0|secondary
383|Idealna inwestycja blisko dworca w Gdańsku !|Gdańsk Śródmieście, Jana Heweliusza|54.3552326|18.6478808|42.3|2|1955|23593|Mieszkanie|0|1|0|0|0|3|0|1|0|secondary
384|2 piękne pokoje w centrum miasta!|Gdańsk Śródmieście, Długie Ogrody|54.3471715|18.6617882|47.1|2|1965|16985|Mieszkanie|0|1|1|0|0|3|0|1|0|secondary
385|Mieszkanie z pięknym widokiem   Stare Miasto|Gdańsk Śródmieście, Ogarna|54.3483642|18.6491967|96.77|4|2005|16534|Mieszkanie|0|0|0|0|1|5|0|0|0|secondary
386|Stare Miasto, super inwestycja|Gdańsk Śródmieście, Mariana Seredyńskiego|54.35009605|18.665820277330447|53.35|2|1906|13964|Mieszkanie|0|0|0|0|0|1|0|1|0|secondary
387|Mieszkanie z ogródkiem - bastion wałowa!|Gdańsk Śródmieście, Wałowa|54.3584458|18.6514304|53.97|3|2018|1760|Mieszkanie|0|1|1|1|1|1|0|0|1|secondary
388|Apartament w ścisłym centrum Starego Miasta!|Gdańsk Śródmieście, Tartaczna|54.3544598|18.6561747|36.43|2|2013|2333|Mieszkanie|0|0|1|0|1|3|0|0|0|secondary
389|Apartament zlokalizowany tuż przy Motławie!|Gdańsk Stare Przedmieście, Kotwiczników|54.3449787|18.65328290367089|42.83|2|2018|23325|Mieszkanie|0|0|0|1|1|2|0|0|0|secondary
390|Gotowe mieszkanie w doskonałej lokalizacji!|Gdańsk Śródmieście, Warzywnicza|54.3516552|18.6577337|40|1|1950|20725|Mieszkanie|0|0|1|0|0|1|0|0|0|secondary
391|Mieszkanie 2-pok. blisko SKM, Stare Miasto|Gdańsk Śródmieście, Rzeźnicka|54.3435338|18.646895|48.86|2|1962|14941|Mieszkanie|0|1|0|0|0|1|0|1|0|secondary
392|Pakiet 3 apartamentów - stare miasto - gdańsk!|Gdańsk Śródmieście, Tartaczna|54.3544598|18.6561747|100.61|6|2013|23845|Mieszkanie|0|0|0|1|1|3|0|0|0|secondary
393|Klimatyczne 3 pokojowe mieszkanie w stylu vintage!|Gdańsk Śródmieście, Jana Dziewanowskiego|54.3516657|18.66276572459389|77|3|1910|20130|Mieszkanie|0|1|1|0|0|1|0|1|0|secondary
394|Możliwość zrobienia 4 POKOI   bez prowizji|Gdańsk Stare Przedmieście, Rzeźnicka|54.60339|18.2448246|62.88|3|1962|14281|Mieszkanie|0|1|1|0|0|3|0|1|0|secondary
395|Mieszkanie po generalnym remoncie w centrum miasta|Gdańsk Śródmieście, Lawendowa|54.3530322|18.6526372|43.|2|1900|22569|Mieszkanie|0|0|0|1|0|1|0|1|0|secondary
396|3 pokoje do własnej aranżacji w centrum miasta!|Gdańsk Śródmieście, Stara Stocznia|54.3553102|18.6622584|64.79|3|2022|25776|Mieszkanie|0|1|1|1|1|6|0|0|0|secondary
397|Dwa pokoje z możliwością trzech, balkon, piwnica!|Gdańsk Stare Przedmieście, Żabi Kruk|54.3440214|18.6485482|49.21|2|1962|17253|Mieszkanie|0|1|1|0|0|2|0|1|0|secondary
398|Apartament w inwestycji z widokiem na Motławę!|Gdańsk Śródmieście, Stępkarska|54.3571319|18.6631378|36.38|2|2021|2295|Mieszkanie|0|1|0|1|1|2|0|0|0|secondary
399|Dwa niezależne pokoje w Centrum Gdańska|Gdańsk Stare Przedmieście, Rzeźnicka|54.60339|18.2448246|38.76|2|1960|17363|Mieszkanie|0|1|1|1|0|3|0|0|0|secondary
400|Idealna inwestycja w sercu Gdańska|Gdańsk Śródmieście, Grobla I|54.3512323|18.6539271|61.6|3|1950|17857|Mieszkanie|0|0|0|0|1|1|0|1|0|secondary
401|Apartament Szafarnia|Gdańsk Śródmieście, Szafarnia|54.3486826|18.6608816|48|2|2010|22917|Mieszkanie|0|0|0|0|1|3|0|0|0|secondary
402|Wyjątkowe miejsce 3 pokoje przy Długim Targu!|Gdańsk Śródmieście, Długi Targ|54.3482174|18.6534668|55.8|3|1952|1774|Mieszkanie|0|0|1|0|0|3|0|1|0|secondary
403|Szeroka- Mieszkanie pięknym widokiem!|Gdańsk Śródmieście, Szeroka|54.3517701|18.6502893|51.5|2|1959|17961|Mieszkanie|0|0|0|1|0|3|0|1|0|secondary
404|Idealna oferta inwestycyjna!|Gdańsk Śródmieście, Św. Barbary|54.3494938|18.6631722|38.7|2|2018|23230|Mieszkanie|0|0|1|1|1|Parter|0|0|1|secondary
405|Nieruchomość Inwestycyjna w sercu Gdańska|Gdańsk Śródmieście, Sienna Grobla|54.35798855|18.666952544667502|35.8|2|2020|24721|Mieszkanie|0|1|0|0|1|2|0|0|0|secondary
406|Gotowiec inwestycyjny w sercu Gdańska przy Marinie|Gdańsk Długie Ogrody, Św. Barbary|54.3494938|18.6631722|77.84|5|2019|19257|Mieszkanie|0|1|0|1|1|4|0|0|0|secondary
407|Atrakcyjna kawalerka w samym centrum|Gdańsk Śródmieście, Rybaki Dolne|54.3570101|18.6542926|18.18|1|1960|25853|Mieszkanie|0|0|1|0|1|3|0|1|0|secondary
408|Apartament gotowy na wynajem bastion wałowa|Gdańsk Śródmieście, Wałowa|54.3584458|18.6514304|30|1|2021|19833|Mieszkanie|0|0|0|1|1|3|0|0|0|secondary
409|Mieszkanie / lokal / kawalerka gdańsk śródmieście|Gdańsk Śródmieście, Rybaki Górne|54.3589772|18.6560476|23.83|1|2022|25136|Mieszkanie|0|1|0|1|1|2|0|0|0|secondary
410|Gotowiec inwestycyjny|Gdańsk Biskupia Górka, Kaznodziejska|54.3417072|18.6408816|49.8|4|1900|11983|Mieszkanie|0|0|0|0|0|3|0|0|0|secondary
411|Wysoki standard z pełnym wyposażeniem !|Gdańsk Wrzeszcz, Jaśkowa Dolina|54.376323600000006|18.607972292794383|94.05|4|2020|29761|Mieszkanie|0|1|0|1|1|Parter|0|0|1|secondary
412|Stara Oliwa piękne mieszkanie w wyjątkowym miejscu|Gdańsk Oliwa, Obrońców Westerplatte|54.408543449999996|18.563888673137853|65|2|1906|28754|Mieszkanie|0|0|0|1|0|1|0|1|1|secondary
413|Unikatowe mieszkanie w centrum Wrzeszcza!|Gdańsk Wrzeszcz, Jana Matejki|54.37578675|18.608952278057618|176.3|6|1907|964|Mieszkanie|0|1|0|1|0|1|0|1|0|secondary
414|Apartament w kamienicy w Oliwie|Gdańsk Oliwa, Artura Grottgera|54.4005641|18.565174305389633|47.05|2|2023|25994|Mieszkanie|0|1|0|1|1|Parter|0|0|0|secondary
415|Całe piętro kamienicy przystosowane dla 3 rodzin!|Gdańsk Wrzeszcz, Jaśkowa Dolina|54.376323600000006|18.607972292794383|132.17|7|1900|17500|Mieszkanie|0|1|0|0|0|1|0|1|0|secondary
416|4 pokoje z dużym potencjałem w klimatycznej Oliwie|Gdańsk Oliwa, Poczty Gdańskiej|52.199283|20.899275|99.47|4|1910|12054|Mieszkanie|0|1|1|0|0|1|0|1|0|secondary
417|3 niezależne pokoje w samym sercu Wrzeszcza !!!|Gdańsk Wrzeszcz, Aldony|54.3826741|18.6129338|74|3|1980|11757|Mieszkanie|0|0|0|0|0|3|0|1|0|secondary
418|Dwa niezależne pokoje w centrum wrzeszcza|Gdańsk Wrzeszcz, Aleja Grunwaldzka|54.37480295|18.618860278592766|56.13|2|1960|12453|Mieszkanie|0|1|1|0|0|2|0|0|0|secondary
419|3 pokoje w centrum wrzeszcza|Gdańsk Wrzeszcz, Juliusza Słowackiego|54.380113|18.5915837|68|3|2009|17600|Mieszkanie|0|1|0|1|1|10|0|0|0|secondary
420|4 pokoje - gdańsk wrzeszcz|Gdańsk Wrzeszcz, Juliusza Słowackiego|54.380113|18.5915837|88.4|4|2009|13575|Mieszkanie|0|1|0|0|1|2|0|1|0|secondary
421|Apartament w stanie deweloperskim w sercu miasta|Gdańsk Wrzeszcz, Kliniczna|54.3755634|18.624003|84|4|2022|14488|Mieszkanie|0|1|1|0|1|5|0|0|0|secondary
422|162 m2! 1 lub 2 mieszkania! 2 miejsca w cenie!|Gdańsk Wrzeszcz, Jarowa|54.3645224|18.6136142|162.1|9|1920|1460|Mieszkanie|0|1|0|1|0|2|0|0|1|secondary
423|Widok na las lub morze ze wszystkic okien!|Gdańsk Oliwa, Karpacka|54.4150643|18.5551019|60.7|4|1980|13987|Mieszkanie|0|1|0|0|1|8|0|1|0|secondary
424|Mieszkanie 131 m2 we Wrzeszczu!|Gdańsk Wrzeszcz, Sochaczewska|54.3849492|18.62475592697509|131.3|4|1965|6085|Mieszkanie|0|0|0|1|0|Parter|0|0|0|secondary
425|Czteropokojowe mieszkanie na Gdańskim Browarze|Gdańsk Wrzeszcz, Jana Kilińskiego|54.38435265|18.605881242819947|75.59|4|2016|19778|Mieszkanie|1|1|1|1|1|1|0|0|0|secondary
426|Eleganckie mieszkanie z dużym tarasem w Garnizonie|Gdańsk Wrzeszcz, Antoniego Słonimskiego|50.730673|17.893596|80.5|4|2012|17640|Mieszkanie|0|1|1|1|1|Parter|0|1|0|secondary
427|Trzy pokoje przy Politechnice|Gdańsk Wrzeszcz, Aleja Grunwaldzka|54.37480295|18.618860278592766|52.57|3|1975|12174|Mieszkanie|0|1|0|0|1|6|0|1|0|secondary
428|Garnizon - Gdańsk Wrzeszcz - Apartament z widokiem|Gdańsk Wrzeszcz, Antoniego Słonimskiego|54.383946699999996|18.590492675271204|138.9|5|2011|16199|Mieszkanie|0|1|1|1|1|5|0|0|0|secondary
429|Klimatyczne mieszkanie z duszą w centrum miasta!|Gdańsk Wrzeszcz, Aleksandra Puszkina|50.650674|17.951508|260|7|1920|11077|Mieszkanie|0|0|1|1|0|Parter|0|1|1|secondary
430|3 gotowe pokoje tuż przy Parku Oliwskim!|Gdańsk Oliwa, Jana I Macieja Kilarskich|54.4156723|18.5626721|48.4|3|2021|2189|Mieszkanie|0|1|1|1|1|4|0|0|0|secondary
431|4 pokoje samym w centrum Gdańsk Wrzeszcz - zamiana|Gdańsk Wrzeszcz, Tadeusza Kościuszki|54.38609535|18.604649962371575|82.5|4|1930|11988|Mieszkanie|0|0|0|1|0|2|0|1|1|secondary
432|3 pokoje po remoncie. Wspaniała panorama!|Gdańsk Wrzeszcz, Aleja Grunwaldzka|54.37480295|18.618860278592766|53|3|1969|15660|Mieszkanie|0|1|0|0|1|8|0|1|0|secondary
433|Wrzeszcz mieszkanie 82 m2 + 50 m2 w piwnicy|Gdańsk Wrzeszcz, Sochaczewska|54.3849492|18.62475592697509|8|4|1965|9744|Mieszkanie|0|0|0|1|0|Parter|0|0|0|secondary
434|Apartament - zajezdnia wrzeszcz - blisko morza|Gdańsk Wrzeszcz, Aleja Gen. Józefa Hallera|54.3764403|18.6228108|50|2|2019|19400|Mieszkanie|0|1|1|1|1|6|0|0|0|secondary
435|Świeżo wykończone, dla siebie lub pod inwestycję|Gdańsk Oliwa, Aleja Grunwaldzka|54.3936461|18.581903|70.25|3|1930|15160|Mieszkanie|0|0|0|0|0|2|0|1|0|secondary
436|Parking! Idealne na Biuro w Sercu Wrzeszcza!|Gdańsk Wrzeszcz, Brzozowa|51.955508|19.314324|3|2|1910|23906|Mieszkanie|0|0|1|1|0|Parter|0|1|1|secondary
437|78 Metrów w Pięknej Kamienicy , Centrum Wrzeszcza|Gdańsk Wrzeszcz, Do Studzienki|54.37403615|18.612639638029194|78.|3|1900|10740|Mieszkanie|0|0|1|0|0|3|0|1|0|secondary
438|Elegancki i luksusowy 3 pokojowy apartament|Gdańsk Wrzeszcz, Grudziądzka|54.3941865|18.619758553616993|73.49|3|2018|20411|Mieszkanie|0|1|1|1|1|5|0|1|0|secondary
439|Mieszkanie gdańsk do studzienki|Gdańsk Wrzeszcz, Do Studzienki|54.37403615|18.612639638029194|80|3|1932|13875|Mieszkanie|0|1|0|1|0|1|0|1|1|secondary
440|Sprzedam 3 pokoje - Gdańsk Wrzeszcz!|Gdańsk Wrzeszcz, Tadeusza Kościuszki|54.38609535|18.604649962371575|49.7|3|1955|13984|Mieszkanie|0|0|0|1|0|1|0|1|0|secondary
441|5 pokoi w klimatycznej kamienicy centrum Wrzeszcza|Gdańsk Wrzeszcz, Szczepana Pileckiego|54.3740275|18.6114036|110|5|1906|17818|Mieszkanie|0|1|0|0|0|Parter|0|1|1|secondary
442|5 min pieszo do SKM! Kamienica po remoncie!|Gdańsk Wrzeszcz, Grażyny|54.3819734|18.6100285|78.07|3|1930|11656|Mieszkanie|0|0|0|1|0|2|0|1|0|secondary
443|Idealna inwestycja- 4 pokoje z oddzielną kuchnią|Gdańsk Młyniska, Marynarki Polskiej|54.399046|18.667671|60.7|4|1980|12026|Mieszkanie|0|1|0|1|1|5|0|1|0|secondary
444|Wyjątkowa nieruchomość w sercu  starej oliwy !|Gdańsk Oliwa, Wojciecha Drzymały|54.406894300000005|18.56620113445521|51|2|1920|15235|Mieszkanie|0|0|0|0|0|2|0|1|1|secondary
445|Wysokie mieszkanie w kamienicy + 2 ogródki|Gdańsk Oliwa, Wita Stwosza|54.406283900000005|18.56308425276502|69.7|3|1930|15065|Mieszkanie|0|0|1|1|0|Parter|0|1|1|secondary
446|Możliwość zrobienia 3 POKOI   dwustronne   GARAŻ|Gdańsk Wrzeszcz, Ludwika Waryńskiego|54.3798153|18.6130013|50.3|2|1955|12903|Mieszkanie|1|1|0|1|0|1|0|1|0|secondary
447|450 m do SKM! Wysoki standard! Słoneczne!|Gdańsk Wrzeszcz, Jana Kochanowskiego|54.3780268|18.62570677403609|45|2|2019|19978|Mieszkanie|0|1|1|1|1|1|0|1|0|secondary
448|Piękne 4 pokoje i 2 łazienki po remoncie!|Gdańsk Wrzeszcz, Jana Kochanowskiego|54.3780268|18.62570677403609|75.16|4|1920|1450|Mieszkanie|0|0|1|0|0|Parter|0|1|0|secondary
449|Mieszkanie we Wrzeszczu obok PG i UM|Gdańsk Wrzeszcz, Politechniczna|54.37471605|18.613915809804602|109.13|3|1932|14661|Mieszkanie|0|0|0|0|0|1|0|1|0|secondary
450|Nowe budownictwo   Hala garażowa   Top lokalizacja|Gdańsk Wrzeszcz, Bolesława Chrobrego|54.384650199999996|18.615576018488127|58.9|3|2012|1611|Mieszkanie|0|1|1|1|1|2|0|0|0|secondary
451|Piękne apartament 5 minut od centrum Gdańska|Gdańsk Suchanino, Taborowa|54.35625235|18.62110451767353|80|4|1960|13500|Mieszkanie|0|0|0|1|0|1|0|1|0|secondary
452|Wrzeszcz - apartament z widokiem!|Gdańsk Wrzeszcz, Gen. Józefa Hallera|51.745911|19.810155|52.36|2|2010|16788|Mieszkanie|0|1|1|1|1|5|0|0|0|secondary
453|Mieszkanie w centrum Wrzeszcz|Gdańsk Wrzeszcz, Partyzantów|54.37668175|18.604603831440997|64.74|3|1962|11569|Mieszkanie|0|1|0|0|0|3|0|0|0|secondary
454|3 pokoje w centrum Gdańska blisko GUMed|Gdańsk Suchanino, Powstańców Warszawskich|50.702898|17.907467|52.97|3|1977|12554|Mieszkanie|0|1|0|0|0|2|0|1|0|secondary
455|Prowizja 0%, Gotowiec, Najtańsze 3 pokoje!|Gdańsk Wrzeszcz, Bolesława Chrobrego|54.384650199999996|18.615576018488127|48.3|3|1958|12607|Mieszkanie|0|0|1|0|0|3|0|1|0|secondary
456|500m do politechnki   GARAŻ   42,5M   12m2 piwnicy|Gdańsk Wrzeszcz, Do Studzienki|54.37403615|18.612639638029194|42.5|2|1955|13176|Mieszkanie|0|0|0|0|0|2|0|0|0|secondary
457|Apartament z widokiem na panoramę Gdańska!|Gdańsk Wrzeszcz, Partyzantów|54.37668175|18.604603831440997|133.18|3|2015|16136|Mieszkanie|0|1|0|1|1|12|0|0|0|secondary
458|Mieszkanie z ogrodem i garażem!|Gdańsk Siedlce, Leona Wyczółkowskiego|52.074752|20.560629|78.8|3|1932|13947|Mieszkanie|1|0|0|1|0|Parter|0|1|1|secondary
459|Spacerem na plażę i kawę na Monte Cassino|Sopot Górny Sopot, Armii Krajowej|54.431978900000004|18.560159189409987|63|2|2000|20619|Mieszkanie|0|1|0|1|0|2|0|1|0|secondary
460|Doskonała lokalizacja, 10 min spacerem od plaży|Gdynia Kamienna Góra, Juliusza Słowackiego|51.970091|19.293427|37|2|1930|16189|Mieszkanie|0|0|0|0|0|nan|0|1|1|secondary
461|Mieszkaj i zarabiaj! Mieszkanie + suterena + ogród|Gdynia Działki Leśne, Wolności|54.51971275|18.52703180774291|7|3|1930|1597|Mieszkanie|0|0|0|1|0|1|0|1|1|secondary
462|10 piętro z widokiem na morze w pasie nadmorskim!|Gdańsk Przymorze, Piastowska|54.4158038|18.5869742|38|2|1970|15763|Mieszkanie|0|1|0|0|1|10|0|1|0|secondary
463|Mieszkaj i zarabiaj! Mieszkanie+przyziemie+ogród|Gdynia Działki Leśne, Wolności|54.51971275|18.52703180774291|120|5|1930|9583|Mieszkanie|0|0|0|1|0|1|0|1|1|secondary
464|Centrum Gdańska, spacerem do pomnika Neptuna|Gdańsk Stare Przedmieście, Dolna Brama|54.3406817|18.6480846|101.86|4|1900|9808|Mieszkanie|0|0|0|0|0|2|0|0|0|secondary
465|Po generalnym remoncie, spacerem na plażę!|Gdańsk Przymorze, Piastowska|54.4158038|18.5869742|46|2|1970|14109|Mieszkanie|0|1|0|0|1|1|0|1|0|secondary
466|3 pokoje, blisko centrum - w otoczeniu zieleni|Gdynia Pustki Cisowskie, Jastrzębia|51.875944|19.226199|60.01|3|1980|998|Mieszkanie|0|1|1|1|0|3|0|1|0|secondary
467|Wysoki standard, 3 pokoje, gotowe do zamieszkania!|Gdańsk Letnica, Letnicka|54.40256465|18.649093874570266|54.59|3|2022|1958|Mieszkanie|0|1|0|1|1|4|0|0|0|secondary
468|Super skomunikowane 2 pokoje, pas nadmorski!|Gdańsk Żabianka, Pomorska|54.4161057|18.5711819|47.3|3|1970|1374|Mieszkanie|0|1|0|0|1|2|0|1|0|secondary
469|Tuż przy Jelitkowskiej Plaży! 2 pokoje po remocie|Gdańsk Żabianka, Tysiąclecia|54.41739645|18.588099131792454|42.5|2|1964|15271|Mieszkanie|0|0|1|0|0|2|0|1|0|secondary
470|Zaskakująca funkcjonalność na 27 m 2|Gdynia Leszczynki, Opata Hackiego|54.5351676|18.4919751|27|2|1970|12407|Mieszkanie|0|0|0|0|0|1|0|1|0|secondary
471|2 pokoje, idealne na start!|Gdańsk Zakoniczyn, Konstantego Bergiela|54.318170300000006|18.58228688217523|42.07|2|2005|12123|Mieszkanie|0|1|0|0|0|3|0|0|0|secondary
472|SWPDL, 3 pokoje, zielona okolica!|Gdynia Leszczynki, Augustyna Kordeckiego|54.53009165|18.486745602035565|49.3|3|1974|101|Mieszkanie|0|1|0|0|0|4|0|1|0|secondary
473|Duża przestrzeń w ścisłym centrum Gdyni!|Gdynia Śródmieście, Świętojańska|54.5205845|18.5428249|127.5|3|1933|13000|Mieszkanie|0|1|0|0|1|4|0|1|0|secondary
474|3 pokoje i piękny widok na miasto i Gdyńskie lasy.|Gdynia Cisowa, Owsiana|54.5475577|18.4419374|56.21|3|1980|85|Mieszkanie|0|1|1|1|1|10|0|1|0|secondary
475|Blisko tramwaju, inwestycyjne  Dolny Wrzeszcz|Gdańsk Wrzeszcz, Legionów|51.954582|19.356372|45.65|2|1950|13669|Mieszkanie|0|0|1|0|0|3|0|1|1|secondary
476|Mieszkanie na osiedlu Fort Forest z halą i komórką|Gdynia Chwarzno, Czesława Niemena|54.5019686|18.4374922|49|2|2021|15000|Mieszkanie|0|0|0|1|0|2|0|0|0|secondary
477|Strzeżone rodzinne osiedle - wykończone mieszkanie|Gdynia Chwarzno, Władysława Kańskiego|54.5009485|18.4386309|71|3|2012|1266|Mieszkanie|0|1|0|1|0|2|0|0|0|secondary
478|Komfortowe mieszkanie blisko SKM Cisowa|Gdynia Cisowa, Chylońska|54.5489989|18.4453877|53|3|1980|10925|Mieszkanie|0|1|0|1|0|2|0|1|0|secondary
479|Ciche słoneczne  na kameralnym osiedlu|Gdynia Mały Kack, Miła|54.4731174|18.5173815|8|3|2008|11219|Mieszkanie|0|1|0|1|0|2|0|0|0|secondary
480|Idealne mieszkanie na start, zielone osiedle!|Gdańsk Łostowice, Niepołomicka|54.31742615|18.593106398457195|42.05|2|2021|1284|Mieszkanie|0|1|0|1|1|1|0|0|0|secondary
481|Central Park Morena 2 pok. widok na morze, okazja|Gdańsk Morena, Piecewska|54.357597850000005|18.591512458150067|39.85|2|2019|16738|Mieszkanie|0|1|1|0|1|5|0|0|0|secondary
482|Dom z ogrodem/taras/garaż/Gdynia Chylonia|Gdynia Cisowa|51.817126|19.29109|178.14|5|1960|729|Mieszkanie|1|0|1|1|0|Parter|0|1|1|secondary
483|Gdańsk ul. Wałowa TOP Lokalizacja|Gdańsk Śródmieście, Wałowa|54.3584458|18.6514304|91.7|3|1900|14449|Mieszkanie|0|0|0|1|0|Parter|0|0|0|secondary
484|3 pok po remoncie   Nad Motławą   Widok na zieleń|Gdańsk Długie Ogrody, Szopy|54.3564345|18.6441946|53.1|3|1970|1600|Mieszkanie|0|1|1|0|1|6|0|1|0|secondary
485|3 pokoje z balkonem w centrum gdyni!|Gdynia Śródmieście, Wójta Radtkego|54.5220319|18.5322481|52.4|3|1956|15057|Mieszkanie|0|1|0|0|0|3|0|1|0|secondary
486|Słoneczne mieszkanie z widokiem na Żuławy|Gdańsk Chełm, Hebanowskiego|54.3331645|18.6269412|76.29|4|2004|12439|Mieszkanie|0|1|0|0|0|2|0|1|0|secondary
487|Dwustronne w centrum z możliwością podziału|Gdynia Śródmieście, Władysława Iv|52.215343|21.15568|75.28|4|1956|11823|Mieszkanie|0|0|1|0|0|4|0|1|0|secondary
488|Mieszkanie nad Morzem blisko plaży i Parku Regana|Gdańsk Zaspa, Aleja Jana Pawła Ii|54.3942518|18.6017644|73.9|4|1993|18390|Mieszkanie|0|1|0|0|1|2|0|1|0|secondary
489|Ostanie piętro, 35 m2, do remontu! Spół.-włas.|Gdynia Grabówek|53.199985|19.640637|35|1|1960|8571|Mieszkanie|0|0|0|0|0|4|0|0|0|secondary
490|Gdańsk, na sprzedaż 2-pok. z ogródkiem *Osiedle Vivaldiego*|Gdańsk Łostowice, Niepołomicka|54.31742615|18.593106398457195|39.97|2|2017|13010|Mieszkanie|0|0|0|0|0|Parter|0|0|0|secondary
491|Mieszkanie - Gdańsk Orunia|Gdańsk Orunia, Podmiejska|54.3302728|18.6319015|51|3|1920|9098|Mieszkanie|0|0|0|0|0|1|0|1|0|secondary
492|Niepowtarzalne mieszkanie w centrum Gdyni!|Gdynia Śródmieście, Obrońców Wybrzeża|54.5165249|18.5369651|50.21|2|1956|139|Mieszkanie|0|1|0|0|0|3|0|1|0|secondary
493|Atrakcyjny dom na działce Rod na Jasieniu!|Gdańsk Jasień, Kartuska|54.3491931|18.5269229|120|3|1990|3750|Dom wolnostojący|0|0|0|1|0|nan|0|0|0|secondary
494|2 pokoje, Gdynia Dąbrowa, Osiedle Leśny Zakątek|Gdynia Dąbrowa, Rdestowa 142|54.4645213|18.4562421|52.7|2|2003|11366|Mieszkanie|0|0|0|0|0|3|0|0|0|secondary
495|Gdańsk przymorze, czwarty żagiel! Wysoki standard!|Gdańsk Przymorze, Olsztyńska|54.4032338|18.6048565|71.4|3|2014|19594|Mieszkanie|1|1|0|1|1|5|0|0|0|secondary
496|Mieszkanie - Gdynia Wielki Kack|Gdynia Wielki Kack, Maszopów|54.4630997|18.4948536|30.06|1|2000|13273|Mieszkanie|0|0|0|0|0|1|0|0|1|secondary
497|2-pokojowe mieszkanie z całym wyposażeniem w cenie|Gdańsk  Wielkopolska 48|54.3152398|18.5911515|43|2|2022|12651|Mieszkanie|0|1|1|1|1|5|0|0|0|secondary
498|3 Niezależne Pokoje w Centrum Sopotu|Sopot Górny Sopot, Niepodległości|54.4534263|18.555444|45.4|3|1975|16520|Mieszkanie|0|1|0|0|1|1|0|1|0|secondary
499|Tego nie mają nowe osiedla|Gdynia Obłuże, Dąbka 257|52.239994|21.297421|50.8|2|1978|9154|Mieszkanie|0|1|0|0|0|1|0|1|0|secondary
500|Dwa pokoje, 49,1m2 Chałubińskiego Chełm|Gdańsk Chałubińskiego , 19|54.378291|18.487005|49.1|2|1983|10487|Mieszkanie|0|1|0|0|1|5|0|1|0|secondary
501|Gdańsk 3 pokoje ogórdek nowe budownictwo inwestyc.|Gdańsk Morena, Czesława Miłosza|54.3483126|18.589546722424245|54|3|2011|13685|Mieszkanie|0|0|1|1|1|Parter|0|0|1|secondary
502|Mieszkanie 2 pokoje Nowy Port|Gdańsk Nowy Port|54.401528|18.6632801|49.8|2|1978|1054|Mieszkanie|0|1|0|0|1|4|0|1|0|secondary
503|2 pokoje w cichej okolicy! Oddzielna kuchnia!|Gdańsk Chełm, Witolda Grabowskiego|54.3388283|18.6255804|49.1|2|1980|12811|Mieszkanie|0|0|0|0|0|1|0|1|0|secondary
504|Dwupoziomowe mieszkanie bezczynszowe Kokoszki|Gdańsk Kokoszki, Kalinowa 75|54.3505777|18.513608|84.5|4|2016|9456|Mieszkanie|0|1|1|1|0|1|0|0|0|secondary
505|2 poziomy! 2 łazienki!  Blisko tramwaj!|Gdańsk Ujeścisko, Przemyska|54.3276513|18.592787258404858|86.5|3|1997|7688|Mieszkanie|0|1|0|1|0|3|0|1|0|secondary
506|Super lokalizacja, Partyzantów,Central Park, winda|Gdynia Wzgórze św. Maksymiliana, Partyzantów|51.958622|19.307605|59.5|2|1938|12756|Mieszkanie|0|0|0|0|0|2|0|0|0|secondary
507|Sprzedam 2 pokojowe mieszkanie w przy osiedlu Garnizon|Gdańsk Wrzeszcz, Grunwaldzka 176|54.3828059|18.5981495|49|2|1970|12857|Mieszkanie|0|0|0|0|0|2|0|0|0|secondary
508|Mieszkanie 50m2, 4 pokoje Siedlce.|Gdańsk Siedlce, Jacka Malczewskiego|52.224469|20.805192|50|4|1956|13980|Mieszkanie|0|0|0|0|0|3|0|0|0|secondary
509|Dom w cichej uliczce w środku miasta.|Gdynia Wielki Kack, Kaczeńcowa|54.46405335|18.495298125201945|155.7|4|1995|9313|Dom szeregowy|1|0|0|1|0|nan|0|0|1|secondary
510|Mieszkanie Gdynia Leszczynki|Gdynia Leszczynki, Leszczynki|54.5274476|18.48460807256368|45.44|2|1958|9661|Mieszkanie|0|0|1|1|0|Parter|0|1|0|secondary
511|Mieszkanie w zielonej okolicy!|Gdańsk Łostowice, Olimpijska|51.746622|19.413194|47.75|2|2013|11916|Mieszkanie|0|1|0|0|0|2|0|1|0|secondary
512|Mieszkanie 80 m2 w kameralnym budynku na Wzgórzu!|Gdynia Wzgórze św. Maksymiliana, Żołnierzy Dywizji Kościuszkowskiej|54.49873805|18.542553858401423|79.34|3|2004|10839|Mieszkanie|0|0|0|1|0|2|0|0|0|secondary
513|Ogród   2 pokoje   Shiraz Park|Gdynia Oksywie, Stefana Czarnieckiego|54.5527074|18.541795|44.51|2|2015|12334|Mieszkanie|0|0|1|1|1|Parter|0|0|1|secondary
514|4-pokojowe mieszkanie z dwiema łazienkami - Gdańsk|Gdańsk Jasień, Potęgowska|54.3314076|18.550409385581524|77.9|4|2016|9615|Mieszkanie|1|1|0|0|1|4|0|0|0|secondary
515|Nowy Apartament! Centrum miasta!|Gdańsk Siedlce, Powstańców Warszawskich|50.702898|17.907467|42.3|2|2023|19778|Mieszkanie|0|1|1|1|1|7|0|1|0|secondary
516|4-pokojowe mieszkanie położone przy jeziorze|Gdańsk Osowa, Kaszubska Droga|54.427794|18.45839|94.56|4|2011|9994|Mieszkanie|0|1|0|1|0|1|0|0|0|secondary
517|Gdańsk Wrzeszcz 3 pokoje  kamienica ulMatki Polki|Gdańsk Wrzeszcz, Matki Polki|54.3764898|18.603429234419124|60.44|3|1930|12905|Mieszkanie|0|0|1|0|0|2|0|1|0|secondary
518|Mieszkanie - Gdańsk Wrzeszcz|Gdańsk Wrzeszcz, Wajdeloty|54.3817664|18.6103743|81|3|1920|18506|Mieszkanie|0|0|0|1|0|1|0|1|1|secondary
519|Mieszkanie 2 pok. w świetnej lokalizacji!|Gdynia Chylonia, Kartuska|54.543789950000004|18.4616818669181|43.5|2|1970|1078|Mieszkanie|0|0|0|0|0|1|0|0|0|secondary
520|3 Pokoje W Spokojnej i Dogodnej Lokalizacji|Gdańsk Ujeścisko, Rogalińska|54.378291|18.487005|65.5|3|2004|11908|Mieszkanie|0|1|0|0|0|2|0|0|0|secondary
521|Kawalerka inwestycyjna Gdańsk Śródmieście|Gdańsk Śródmieście, Ogarna|54.3483642|18.6491967|24.5|1|1960|22449|Mieszkanie|0|0|0|0|0|2|0|0|0|secondary
522|Wyjątkowy, wygodny apartament z widokiem na morze|Gdynia Wzgórze św. Maksymiliana|54.498922050000004|18.531364235031788|104.4|4|1960|15230|Mieszkanie|0|1|1|1|0|1|0|0|1|secondary
523|Dwustronne mieszkanie z dwoma balkonami|Gdańsk Ujeścisko, Królowej Jadwigi|54.3274728|18.6072553|70.07|3|2008|11403|Mieszkanie|0|1|1|1|0|1|0|0|0|secondary
524|Garnizon-mieszkanie inwestycyjne z ogródkiem|Gdańsk Wrzeszcz, Edwarda Stachury|54.3820338|18.5868309|27.07|1|2017|21795|Mieszkanie|0|0|1|0|1|Parter|0|0|1|secondary
525|Apartament w centrum miasta Plac Unii|Gdynia Śródmieście, Obrońców Wybrzeża|54.5165249|18.5369651|47.44|2|2022|26117|Mieszkanie|0|1|0|1|1|5|0|0|0|secondary
526|Wysoki standard z dużym ogródkiem|Gdańsk, Niepołomicka|54.31742615|18.593106398457195|51.4|2|2023|14494|Mieszkanie|0|0|0|1|0|Parter|0|0|1|secondary
527|Apartament Sea Salt 38,2 m2 Zaspa|Gdańsk Zaspa, Jana Pawła II|54.4024472|18.6112076|38.|1|2024|18325|Mieszkanie|0|1|0|1|1|3|0|0|0|secondary
528|Mieszkanie 3 pokojowe Niepołomicka 44.46 m2|Gdańsk Niepołomicka|54.31742615|18.593106398457195|44.46|3|2019|13495|Mieszkanie|0|0|0|0|1|3|0|0|0|secondary
529|Apartament - Porto - Plaża 1000m, Parking x2|Gdańsk Letnica, Letnicka|54.40256465|18.649093874570266|9|3|2022|14076|Mieszkanie|1|1|1|1|1|1|0|0|0|secondary
530|Wyjątkowy apartament - DOKI -|Gdańsk Młode Miasto, Ks. Jerzego Popiełuszki|54.3605821|18.652621|79|3|2023|2753|Mieszkanie|0|1|0|1|1|1|0|0|1|secondary
531|Gotowe do wprowadzenia - Morena - Hala/komórka|Gdańsk Morena, Myśliwskie Wzgórze|54.348280700000004|18.562206536372713|42.1|2|2015|14228|Mieszkanie|0|1|1|1|1|4|0|1|0|secondary
532|Mieszkanie 3 pokoje - Wrzeszcz - Kameralnie|Gdańsk Wrzeszcz, Do Studzienki|54.37403615|18.612639638029194|67.|3|2012|17098|Mieszkanie|0|1|0|1|1|1|0|0|0|secondary
533|3 pokojowe mieszkanie w Gdyni Witomino|Gdynia Witomino|53.199985|19.640637|65|3|2007|13538|Mieszkanie|0|1|0|1|0|2|0|0|0|secondary
534|Mieszkanie na sprzedaż, 54m. świetna lokalizacja|Gdańsk Wrzeszcz, Pestalozziego 17|54.384912|18.608892|54|3|1928|147|Mieszkanie|0|0|0|0|0|2|0|0|0|secondary
535|Mieszkanie 2-pokoje na Przymorzu nie falowiec|Gdańsk Przymorze, Chlopska 10|54.4085855|18.5886131|38|2|1980|16553|Mieszkanie|0|1|0|0|0|1|0|1|0|secondary
536|Mieszkanie - Gdynia Wielki Kack|Gdynia Wielki Kack, Maszopów|54.4630997|18.4948536|30.06|2|2000|13273|Mieszkanie|0|0|0|0|0|1|0|0|1|secondary
537|3 pokojowe ustawne mieszkanie z balkonem|Gdańsk Wrzeszcz, Adama Mickiewicza|54.3833769|18.61728451894811|61|3|1994|11951|Mieszkanie|0|1|0|0|0|3|0|1|0|secondary
538|Mieszkanie - Gdańsk Jasień|Gdańsk Jasień, Kazimierza Leskiego|54.3238638|18.5586781|61.96|3|2015|12105|Mieszkanie|0|1|1|0|1|4|0|1|0|secondary
539|Komfortowa nieruchomość gotowa do zamieszkania|Gdańsk Łostowice, Niepołomicka|54.31742615|18.593106398457195|72.14|3|2022|15941|Mieszkanie|0|1|1|1|1|4|0|0|0|secondary
540|Gdańsk, Morena, Bezpośredni widok na jezioro!|Gdańsk Morena, Myśliwska|54.3457315|18.583013955487807|74.8|3|2010|14024|Mieszkanie|0|0|0|0|1|4|0|0|0|secondary
541|3 pokoje - piękny, duży ogród, 2 miejsca w hali|Gdańsk Łostowice, Niepołomicka|54.31742615|18.593106398457195|60.1|3|2019|11976|Mieszkanie|0|0|0|1|1|Parter|0|0|1|secondary
542|Gotowe do zamieszkania! Świetna lokalizacja!|Gdynia Śródmieście, Obrońców Wybrzeża|54.5165249|18.5369651|50.1|2|1956|14950|Mieszkanie|0|1|0|0|0|2|0|1|0|secondary
543|Nowoczesne mieszkanie, historyczne osiedle.|Gdańsk Wrzeszcz, Jana Kilińskiego|54.38435265|18.605881242819947|45|2|2015|22000|Mieszkanie|0|1|1|1|1|2|0|0|0|secondary
544|GdyniaOksywieGórne,3pok.54m2,piwnica,garaz,morze|Gdynia Oksywie, Andaluzyjska 44|54.5476956|18.5441931|54.38|3|2015|13100|Mieszkanie|1|1|1|1|1|Parter|0|1|0|secondary
545|Gdynia centrum 4 pokoje + kuchnia  widok na morze|Gdynia Działki Leśne, Zjazdowa|54.5115852|18.5312261|73.7|4|1980|11384|Mieszkanie|0|1|1|0|1|10|0|1|0|secondary
546|Gotowe do zamieszkania - 3 osobne pokoje!|Gdynia Leszczynki, Gen. Orlicz-dreszera|54.5457503|18.4636617|65.6|3|1979|11418|Mieszkanie|0|1|0|0|1|9|0|1|0|secondary
547|Mieszkanie 2-Pokojowe Sopot Kamienny Potok,Świetna Lokalizacja !|Sopot Ul.Kraszewskiego, 30|54.43623|18.564968|38|2|1985|14447|Mieszkanie|0|0|1|1|1|Parter|0|1|0|secondary
548|Blisko do plaży   salon od strony południowej|Gdańsk Stogi, Hoża|54.3602364|18.712095394652945|40.91|2|1965|12686|Mieszkanie|0|1|1|0|0|4|0|1|0|secondary
549|DOM do wprowadzenia chicha okolica|Gdańsk Ujeścisko, Wiśniowa|54.3408916|18.578048|140|4|2007|9643|Dom bliźniak|1|1|0|1|0|nan|0|0|1|secondary
550|3 pokoje/ lawendowe wzgórze/ wysoki standard|Gdańsk Jasień, Lawendowe Wzgórze|52.201692|18.259949|50.87|3|2016|13544|Mieszkanie|1|1|1|1|1|2|0|0|0|secondary
551|2 pokoje   Zajezdnia Wrzeszcz   blisko morza|Gdańsk Wrzeszcz, Grudziądzka|54.3941865|18.619758553616993|39.73|2|2016|21394|Mieszkanie|0|0|1|1|1|1|0|0|0|secondary
552|Wolnostojący   gdańsk - kiełpino   do wprowadzenia|Gdańsk Kiełpino Górne, Lipcowa|54.3448994|18.5088613|258|6|2002|10465|Dom wolnostojący|1|0|0|1|0|nan|0|0|1|secondary
553|Osiedle optima   spokojna okolica    WINDA|Gdańsk Jasień, Tadeusza Jasińskiego|54.33643045|18.539236899935283|64.5|3|2021|11314|Mieszkanie|0|1|1|1|1|1|0|1|0|secondary
554|JASNE   dostępne od zaraz   miejsce postojowe|Gdańsk Łostowice, Ofiar Grudnia 70|54.599917|18.265519|29|1|2022|13966|Mieszkanie|0|1|1|1|1|4|0|0|0|secondary
555|2 pokoje   blisko plaży   osobna kuchnia|Gdańsk Nowy Port, Wyzwolenia|54.3980748|18.6657651|49.3|2|1980|13164|Mieszkanie|0|1|1|0|0|1|0|1|0|secondary
556|3 pokoje   OGRÓD   miejsce w hali   komórka lok.|Gdańsk Orunia Górna, Kurierów Armii Krajowej|54.325958|18.6083656|63|3|2020|12683|Mieszkanie|0|0|1|1|0|Parter|0|0|1|secondary
557|Gotowe do zamieszkania  2 pokoje  balkon   parking|Gdańsk Jasień, Lawendowe Wzgórze|52.201692|18.259949|37.17|2|2016|14528|Mieszkanie|0|1|1|1|1|4|0|0|0|secondary
558|Rewelacyjne dwa pokoje z widokiem na zieleń|Gdańsk Zaspa, Dywizjonu 303|54.3902402|18.6025372|48.09|2|1980|15055|Mieszkanie|0|1|1|1|1|4|0|1|0|secondary
559|Kawalerka   pod inwestycje   od zaraz|Gdańsk Jasień, Lawendowe Wzgórze|52.201692|18.259949|30|1|2019|14167|Mieszkanie|0|1|1|1|1|1|0|0|0|secondary
560|4 pokoje   2 miejsca postojowe   szybkie wydanie|Gdańsk Łostowice, Niepołomicka|54.31742615|18.593106398457195|78.77|4|2022|10791|Mieszkanie|0|1|1|1|1|3|0|0|0|secondary
561|3 pokoje   Królewskie Wzgórze   widok na Zatokę|Gdańsk Morena, Królewskie Wzgórze|54.3490549|18.5703027|48.64|3|2014|15419|Mieszkanie|0|1|0|1|0|3|0|0|0|secondary
562|Dom wolnostojący   zabianka   natychmiastowe wydan|Gdańsk Żabianka, Jakuba Wejhera|54.4212443|18.5846315237785|158|9|1991|13285|Dom wolnostojący|1|0|1|1|0|nan|0|1|1|secondary
563|Doki śródmieście 2 pokoje   idealne pod inwestycje|Gdańsk Młode Miasto, Ks. Jerzego Popiełuszki|54.3605821|18.652621|27.5|2|2023|27236|Mieszkanie|0|1|1|0|1|3|0|0|0|secondary
564|Kawalerka|Gdańsk Osowa, Wodnika 10|52.39271|16.985762|25|1|1995|16000|Mieszkanie|0|0|0|0|0|4|0|1|0|secondary
565|Sprzedam mieszkanie|Gdynia Chylonia, Młyńska|51.663037|19.451419|41.5|2|1971|8675|Mieszkanie|0|0|0|0|0|3|0|0|0|secondary
566|Wysoki standard w stylu modern classic - Chełm!|Gdańsk Chełm, Jana Styp-rekowskiego|54.342138500000004|18.629860307307958|76.8|4|1995|12891|Mieszkanie|0|1|0|0|0|Parter|0|1|0|secondary
567|Przestronne mieszkanie 3 pokojowe -Gdańsk!|Gdańsk Łostowice, Andrzeja Grubby|54.306221|18.593622|64|3|2015|9516|Mieszkanie|0|1|0|0|0|3|0|0|0|secondary
568|Gotowe do zamieszkania! Blisko plaży!|Gdynia Śródmieście, Obrońców Wybrzeża|54.5165249|18.5369651|50.1|2|1960|15150|Mieszkanie|0|1|0|0|0|2|0|1|0|secondary
569|Dwa poziomy, aż 120m2 po podłodze|Gdańsk Ujeścisko, Nieborowska|54.3299616|18.6051167|59.1|2|2005|11168|Mieszkanie|0|1|1|1|0|3|0|1|0|secondary
570|2 pokojowe, funkcjonalne mieszkanie - Matarnia!|Gdańsk Matarnia - Rębiechowo, Mjr. Mieczysława Słabego|54.37354|18.506331|29.7|2|1970|13434|Mieszkanie|0|0|0|0|0|1|0|1|0|secondary
571|Biskupia Gorka mieszaknie 3 pokoje|Gdańsk Śródmieście, Biskupia|54.3451528|18.6406729|65|3|1930|12615|Mieszkanie|0|0|0|0|0|1|0|0|0|secondary
572|Mieszkanie 3 pokojowe, ul. Niepołomicka|Gdańsk Łostowice, Niepołomicka 46|54.378291|18.487005|50.77|3|2020|12980|Mieszkanie|1|0|0|0|1|Parter|0|0|1|secondary
573|Nowość!!! 2 pokoje Osiedle Wiczlino Ogród|Gdynia Wiczlino, Stanisława Filipkowskiego|54.4870655|18.4247405|53.4|2|2011|11779|Mieszkanie|0|1|0|1|1|2|0|0|0|secondary
574|3 pokoje blisko SKM i obwodnicy!|Gdynia Chylonia, Helska|54.53990865|18.460456788221844|46.9|3|1970|9275|Mieszkanie|0|1|0|0|1|3|0|1|0|secondary
575|Mały kack, apartament do wejścia!|Gdynia Mały Kack, Strzelców|54.4691693|18.5091229|66.69|3|2016|14920|Mieszkanie|0|0|0|1|1|Parter|0|0|1|secondary
576|Kawalerka z potencjałem|Gdańsk Ujeścisko, Przemyska|54.3276513|18.592787258404858|3|1|2000|14031|Mieszkanie|0|0|0|0|0|1|0|0|0|secondary
577|Gdańsk, kawalerka gotowa do wejścia!!!|Gdańsk Łostowice, Andrzeja Grubby|54.306221|18.593622|24.8|1|2014|14073|Mieszkanie|0|1|0|1|1|2|0|0|0|secondary
578|Kawalerka! 1-sze piętro!|Gdynia Chylonia, Ludwika Zamenhofa|54.53580625|18.481285238561394|26.24|1|1972|10633|Mieszkanie|0|0|0|0|0|1|0|1|0|secondary
579|Mieszkanie - Gdańsk Brzeźno|Gdańsk Brzeźno, Dworska|54.407658|18.6308055329161|61.4|3|1980|13827|Mieszkanie|0|0|0|0|0|4|0|0|0|secondary
580|Mieszkanie z ogrodem i kawalerką w bonusie|Gdynia Mały Kack, Lidzka|54.4753488|18.5168559|57.33|3|1960|12559|Mieszkanie|0|1|0|0|0|Parter|0|1|1|secondary
581|Przestronna kawalerka z ładnym widokiem|Gdańsk Zakoniczyn, Kazimierza Porębskiego|54.3187243|18.5813595|33.5|1|2008|13731|Mieszkanie|0|0|0|0|0|2|0|0|0|secondary
582|2 pokoje w kapitalnej lokalizacji blisko morza|Gdańsk Przymorze, Chłopska|54.4070557|18.59242040007326|45|2|1969|13978|Mieszkanie|0|0|0|0|0|1|0|1|0|secondary
583|Gdańsk Lawende nowe budwonictwo 2 pokoje ogródek|Gdańsk Jasień, Lawendowe Wzgórze|52.201692|18.259949|37.|2|2017|14643|Mieszkanie|0|0|1|1|1|Parter|0|0|1|secondary
584|Mieszkanie w centrum Gdańska, 3 pokoje, 50m2|Gdańsk Śródmieście, Łagiewniki|54.3596161|18.6485078|50.8|3|1960|13366|Mieszkanie|0|1|0|1|0|3|0|0|0|secondary
585|Dwupokojowe mieszkanie blisko morza!|Gdynia Oksywie, Cypriana Godebskiego|54.5511386|18.539189458918017|34.5|2|1954|11971|Mieszkanie|0|0|0|0|0|Parter|0|1|0|secondary
586|2 pokoje w wysokim standardzie|Gdańsk Św. Wojciech, Czerska|51.818646|20.941478|39.46|2|2017|13913|Mieszkanie|0|1|0|1|1|1|0|0|0|secondary
587|2 pokoje, Gdańsk Śródmieście, idealne pod wynajem!|Gdańsk Śródmieście, Katarzynki|54.3540011|18.652984|49|2|1957|13980|Mieszkanie|0|1|0|0|0|3|0|1|0|secondary
588|Apartament w sercu Gdańska!|Gdańsk Stare Przedmieście, Chmielna|52.216403|19.347141|45.33|2|2017|21818|Mieszkanie|0|1|0|1|1|5|0|0|0|secondary
589|3 pokoje w centrum wrzeszcza!|Gdańsk Wrzeszcz, Gen. Józefa Hallera|51.745911|19.810155|65.7|3|1941|12005|Mieszkanie|0|0|0|1|0|2|0|1|1|secondary
590|Apartament nad motławą wysoki standard|Gdańsk Długie Ogrody, Sienna Grobla|54.3623351|18.4920256|40.11|2|2020|19073|Mieszkanie|0|1|0|1|1|1|0|0|0|secondary
591|Idealne 2 pokoje mieszkanie na przymorzu!|Gdańsk Przymorze, Kołobrzeska|54.4016029|18.578342075981595|50|2|1970|13980|Mieszkanie|0|1|0|0|0|3|0|1|0|secondary
592|Przestrzeń! Balkon -47,4m2! 2 miejsca w hali!|Gdańsk Łostowice, Wielkopolska|54.3171537|18.590914|77.86|3|2023|8335|Mieszkanie|0|1|0|1|1|3|0|0|0|secondary
593|60m2 z piwnicą na Obłużu!|Gdynia Obłuże, Podgórska|54.554114150000004|18.50682402428704|60|2|1976|10833|Mieszkanie|0|1|0|0|1|1|0|1|1|secondary
594|Granaria - wyspa spichrzów|Gdańsk Śródmieście, Chmielna|54.3490425|18.6577299|47.15|1|2020|22500|Mieszkanie|0|0|0|0|1|1|0|0|0|secondary
595|Sopot Wyścigi,  pod wynajem do zamieszkania|Sopot Wyścigi / Karlikowo, Aleja Niepodległości|50.547437|17.834262|47.39|3|1922|16438|Mieszkanie|0|0|0|1|0|1|0|1|0|secondary
596|2 pokoje z widokiem na morze|Gdynia Kamienna Góra, Ignacego Krasickiego|54.5105785|18.5429911|38.1|2|1970|14409|Mieszkanie|0|0|0|0|1|5|0|0|0|secondary
597|3 przestronne pokoje, Gdynia Pogórze|Gdynia Pogórze, Kmdr. Bolesława Romanowskiego|54.56248|18.490257|60.5|3|1970|9901|Mieszkanie|0|0|0|0|0|2|0|0|0|secondary
598|Mieszkanie - Gdańsk Morena Piecki-Migowo|Gdańsk Morena, Wileńska|51.957436|19.371477|54|3|1980|12574|Mieszkanie|0|0|0|0|0|4|0|1|0|secondary
599|Dom z garażem i ogródkiem w centrum Gdyni|Gdynia Działki Leśne, Toruńska|54.5098466|18.53010968481697|138.91|5|1986|13318|Dom wolnostojący|1|1|0|1|0|nan|0|1|1|secondary
600|Willa Poznanianka - ikona architektury gdyńskiej.|Gdynia Kamienna Góra, Franciszka Sędzickiego|54.515718750000005|18.546798768055563|358|8|1921|18715|Dom wolnostojący|0|1|0|1|0|nan|0|0|1|secondary
601|Piękny dom szeregowy z sauną, wysoki st|Gdańsk Osowa, Chirona|54.42602695|18.462399627524494|100.|3|2004|16966|Dom szeregowy|1|0|0|1|0|nan|0|0|1|secondary
602|Zamieszkaj nad morzem|Gdańsk Brzeźno, Władysława Broniewskiego|52.218974|19.365718|58.9|3|1974|11715|Mieszkanie|0|1|0|0|0|Parter|0|1|0|secondary
603|2 pokoje w Nowym Porcie !!!|Gdańsk Nowy Port, Wyzwolenia|54.3980748|18.6657651|46.3|2|1978|10365|Mieszkanie|0|0|1|0|1|8|0|0|0|secondary
604|Mieszkanie - Gdańsk Morena|Gdańsk Jasień, Gen. Władysława Andersa|54.35109585|18.5514744185204|75.73|4|2021|16493|Mieszkanie|0|0|0|1|1|Parter|0|0|1|secondary
605|Mieszkanie z ogrodem , os. Wróbla Staw|Gdańsk Jasień, Jasieńska|54.3412344|18.5610532|33.|1|2011|13554|Mieszkanie|0|0|1|1|0|Parter|0|0|1|secondary
606|Kawalerka w wysokim standardzie|Gdańsk Łostowice, Ofiar Grudnia '70|54.378291|18.487005|27|1|2022|15556|Mieszkanie|0|0|0|0|0|1|0|0|0|secondary
607|Zainwestuj w Gdyni|Gdynia Działki Leśne, Śląska|54.5108872|18.5341714|53.68|2|1932|7433|Mieszkanie|0|0|0|0|1|2|0|0|0|secondary
608|2-pokojowe mieszkanie w Gdańsku z pięknym widoki|Gdańsk Suchanino, Kamieńskiego|51.132058|23.509934|42.4|2|1979|13909|Mieszkanie|0|1|1|0|1|9|0|1|0|secondary
609|2 pokoje z ogródkiem - Sopot|Sopot Górny Sopot, Daniela Chodowieckiego|54.4499168|18.5530338|47|2|1930|1487|Mieszkanie|0|0|0|0|0|Parter|0|1|1|secondary
610|Mieszkanie w gdyni chylonia!!!|Gdynia Chylonia, Swarzewska|54.53731915|18.469655925034004|37.08|3|1980|13134|Mieszkanie|0|0|0|0|1|11|0|1|0|secondary
611|Wielkie WOW, gotowe do zamieszkania|Gdańsk Św. Wojciech, Czerska|51.818646|20.941478|64.26|3|2013|10115|Mieszkanie|0|1|0|1|0|3|0|0|0|secondary
612|6-pokojowe na Dąbrowie!|Gdynia Dąbrowa, Lubczykowa|54.4738306|18.470557542281156|140|6|2002|7493|Mieszkanie|0|1|0|1|0|3|0|1|0|secondary
613|3-pokojowe, słoneczne mieszkanie z aneksem kuchen|Gdańsk Chełm, Cieszyńskiego|54.3380525|18.6109202|49.5|3|1987|11919|Mieszkanie|0|1|1|0|0|Parter|0|1|0|secondary
614|Mieszkanie - Gdańsk Morena|Gdańsk Morena, Królewskie Wzgórze|54.3490549|18.5703027|69.36|4|2008|12961|Mieszkanie|0|1|0|1|0|1|0|0|0|secondary
615|To może być Twoje mieszkanie|Gdańsk Łostowice, Andrzeja Grubby|54.306221|18.593622|48.29|2|2015|9298|Mieszkanie|0|1|0|0|0|3|0|0|0|secondary
616|Gdańsk, Jasień, 3 pokojowe przytulne mieszkanie!|Gdańsk Jasień, Rycerza Blizbora|54.3402016|18.563872337024485|61.8|3|1995|11311|Mieszkanie|0|1|0|0|0|2|0|1|0|secondary
617|2 niezależne pokoje w kapitalnej lokalizacji|Gdańsk Wrzeszcz, Grunwaldzka|50.016896349999996|22.680195777355458|45.1|2|1950|13304|Mieszkanie|0|1|0|0|0|3|0|1|0|secondary
